$GPGGA,231423.750,4739.2891,N,12219.1715,W,1,03,3.57,167.4,M,-17.3,M,,*57
$GPVTG,294.61,T,,M,0.92,N,1.70,K,A*38
$GPGGA,231424.000,4739.2893,N,12219.1722,W,1,03,3.57,167.4,M,-17.3,M,,*54
$GPRMC,231424.000,A,4739.2893,N,12219.1722,W,0.90,293.25,061221,,,A*78
$GPVTG,293.25,T,,M,0.90,N,1.67,K,A*3B
$GPGGA,231424.082,4739.2894,N,12219.1728,W,1,03,3.57,167.4,M,-17.3,M,,*53
$GPVTG,292.68,T,,M,0.88,N,1.63,K,A*3E
$GPGGA,231424.142,4739.2894,N,12219.1730,W,1,03,3.57,167.4,M,-17.3,M,,*57
$GPVTG,292.87,T,,M,0.85,N,1.58,K,A*3A
$GPGGA,231424.500,4739.2895,N,12219.1732,W,1,03,3.57,167.4,M,-17.3,M,,*56
$GPVTG,296.43,T,,M,0.87,N,1.61,K,A*3E
$GPGGA,231424.750,4739.2896,N,12219.1733,W,1,03,3.57,167.4,M,-17.3,M,,*53
$GPRMC,231424.750,A,4739.2896,N,12219.1733,W,0.88,299.93,061221,,,A*71
$GPVTG,299.93,T,,M,0.88,N,1.63,K,A*31
$GPGGA,231425.000,4739.2897,N,12219.1735,W,1,03,3.57,167.4,M,-17.3,M,,*57
$GPVTG,302.32,T,,M,0.87,N,1.61,K,A*34
$GPGGA,231425.250,4739.2898,N,12219.1738,W,1,03,3.57,167.4,M,-17.3,M,,*52
$GPVTG,305.89,T,,M,0.82,N,1.52,K,A*36
$GPGGA,231425.500,4739.2898,N,12219.1739,W,1,03,3.57,167.3,M,-17.3,M,,*56
$GPVTG,311.53,T,,M,0.71,N,1.32,K,A*3E
$GPGGA,231425.750,4739.2898,N,12219.1741,W,1,03,3.57,167.3,M,-17.3,M,,*5E
$GPRMC,231425.750,A,4739.2898,N,12219.1741,W,0.61,317.23,061221,,,A*70
$GPVTG,317.23,T,,M,0.61,N,1.13,K,A*3D
$GPGGA,231426.000,4739.2899,N,12219.1744,W,1,03,3.57,167.4,M,-17.3,M,,*5C
$GPVTG,312.24,T,,M,0.64,N,1.18,K,A*31
$GPGGA,231426.250,4739.2899,N,12219.1746,W,1,03,3.57,167.4,M,-17.3,M,,*59
$GPVTG,310.17,T,,M,0.69,N,1.27,K,A*32
$GPGGA,231426.500,4739.2899,N,12219.1747,W,1,03,3.57,167.4,M,-17.3,M,,*5A
$GPVTG,311.42,T,,M,0.68,N,1.26,K,A*33
$GPGGA,231426.750,4739.2899,N,12219.1748,W,1,03,3.57,167.4,M,-17.3,M,,*52
$GPRMC,231426.750,A,4739.2899,N,12219.1748,W,0.69,308.84,061221,,,A*70
$GPVTG,308.84,T,,M,0.69,N,1.27,K,A*31
$GPGGA,231427.000,4739.2899,N,12219.1750,W,1,03,3.57,167.4,M,-17.3,M,,*58
$GPVTG,305.31,T,,M,0.75,N,1.39,K,A*30
$GPGGA,231427.250,4739.2899,N,12219.1752,W,1,03,3.57,167.4,M,-17.3,M,,*5D
$GPVTG,304.38,T,,M,0.78,N,1.44,K,A*3F
$GPGGA,231427.500,4739.2899,N,12219.1753,W,1,03,3.57,167.4,M,-17.3,M,,*5E
$GPVTG,302.60,T,,M,0.77,N,1.43,K,A*3C
$GPGGA,231427.750,4739.2900,N,12219.1753,W,1,03,3.57,167.4,M,-17.3,M,,*58
$GPRMC,231427.750,A,4739.2900,N,12219.1753,W,0.76,305.53,061221,,,A*73
$GPVTG,305.53,T,,M,0.76,N,1.40,K,A*39
$GPGGA,231428.000,4739.2900,N,12219.1755,W,1,03,3.57,167.4,M,-17.3,M,,*53
$GPVTG,306.90,T,,M,0.72,N,1.34,K,A*32
$GPGGA,231428.250,4739.2900,N,12219.1755,W,1,03,3.57,167.4,M,-17.3,M,,*54
$GPVTG,309.01,T,,M,0.68,N,1.26,K,A*3D
$GPGGA,231428.500,4739.2900,N,12219.1755,W,1,03,3.58,167.4,M,-17.3,M,,*59
$GPVTG,315.69,T,,M,0.64,N,1.19,K,A*3E
$GPGGA,231428.750,4739.2900,N,12219.1754,W,1,03,3.57,167.4,M,-17.3,M,,*50
$GPRMC,231428.750,A,4739.2900,N,12219.1754,W,0.58,319.43,061221,,,A*7B
$GPVTG,319.43,T,,M,0.58,N,1.08,K,A*35
$GPGGA,231429.000,4739.2900,N,12219.1754,W,1,03,3.57,167.4,M,-17.3,M,,*53
$GPVTG,322.59,T,,M,0.55,N,1.01,K,A*32
$GPGGA,231429.250,4739.2901,N,12219.1754,W,1,03,3.57,167.4,M,-17.3,M,,*55
$GPVTG,323.92,T,,M,0.54,N,1.00,K,A*34
$GPGGA,231429.500,4739.2901,N,12219.1755,W,1,03,3.57,167.4,M,-17.3,M,,*56
$GPVTG,323.34,T,,M,0.56,N,1.04,K,A*3E
$GPGGA,231429.750,4739.2902,N,12219.1757,W,1,03,3.57,167.4,M,-17.3,M,,*50
$GPRMC,231429.750,A,4739.2902,N,12219.1757,W,0.62,321.83,061221,,,A*75
$GPVTG,321.83,T,,M,0.62,N,1.15,K,A*37
$GPGGA,231430.000,4739.2902,N,12219.1757,W,1,03,3.58,167.4,M,-17.3,M,,*55
$GPVTG,321.85,T,,M,0.64,N,1.19,K,A*3B
$GPGGA,231430.092,4739.3158,N,12219.3153,W,1,05,1.53,-4.0,M,-17.3,M,,*7A
$GPVTG,39.61,T,,M,0.46,N,0.85,K,A*0F
$GPGGA,231430.500,4739.3153,N,12219.3136,W,1,05,1.53,-3.0,M,-17.3,M,,*7B
$GPVTG,44.50,T,,M,0.50,N,0.92,K,A*06
$GPGGA,231430.750,4739.3150,N,12219.3120,W,1,05,1.53,-2.3,M,-17.3,M,,*7A
$GPRMC,231430.750,A,4739.3150,N,12219.3120,W,0.54,50.80,061221,,,A*44
$GPVTG,50.80,T,,M,0.54,N,1.00,K,A*00
$GPGGA,231431.000,4739.3145,N,12219.3100,W,1,05,1.53,-1.4,M,-17.3,M,,*7B
$GPVTG,54.42,T,,M,0.56,N,1.04,K,A*0C
$GPGGA,231431.250,4739.3141,N,12219.3086,W,1,05,1.53,-0.7,M,-17.3,M,,*75
$GPVTG,57.76,T,,M,0.57,N,1.06,K,A*0B
$GPGGA,231431.500,4739.3138,N,12219.3076,W,1,05,1.53,-0.2,M,-17.3,M,,*73
$GPVTG,59.04,T,,M,0.57,N,1.05,K,A*03
$GPGGA,231431.750,4739.3137,N,12219.3068,W,1,05,1.53,0.3,M,-17.3,M,,*58
$GPRMC,231431.750,A,4739.3137,N,12219.3068,W,0.57,53.57,061221,,,A*43
$GPVTG,53.57,T,,M,0.57,N,1.05,K,A*0F
$GPGGA,231432.000,4739.3136,N,12219.3059,W,1,05,1.53,0.9,M,-17.3,M,,*50
$GPVTG,36.64,T,,M,0.58,N,1.07,K,A*01
$GPGGA,231432.250,4739.3134,N,12219.3052,W,1,05,1.53,1.4,M,-17.3,M,,*52
$GPVTG,38.01,T,,M,0.60,N,1.11,K,A*00
$GPGGA,231432.500,4739.3132,N,12219.3043,W,1,05,1.53,1.9,M,-17.3,M,,*5B
$GPVTG,37.08,T,,M,0.60,N,1.11,K,A*06
$GPGGA,231432.750,4739.3131,N,12219.3036,W,1,05,1.53,2.3,M,-17.3,M,,*54
$GPRMC,231432.750,A,4739.3131,N,12219.3036,W,0.59,34.45,061221,,,A*41
$GPVTG,34.45,T,,M,0.59,N,1.10,K,A*07
$GPGGA,231433.000,4739.3130,N,12219.3031,W,1,05,1.53,2.7,M,-17.3,M,,*55
$GPVTG,32.08,T,,M,0.60,N,1.11,K,A*03
$GPGGA,231433.250,4739.3130,N,12219.3028,W,1,05,1.53,2.9,M,-17.3,M,,*54
$GPVTG,35.30,T,,M,0.62,N,1.16,K,A*0A
$GPGGA,231433.500,4739.3128,N,12219.3022,W,1,05,1.53,3.2,M,-17.3,M,,*5F
$GPVTG,40.40,T,,M,0.64,N,1.19,K,A*06
$GPGGA,231433.750,4739.3127,N,12219.3018,W,1,05,1.53,3.4,M,-17.3,M,,*58
$GPRMC,231433.750,A,4739.3127,N,12219.3018,W,0.57,41.61,061221,,,A*41
$GPVTG,41.61,T,,M,0.57,N,1.06,K,A*0A
$GPGGA,231434.000,4739.3125,N,12219.3015,W,1,05,1.53,3.7,M,-17.3,M,,*51
$GPVTG,48.32,T,,M,0.46,N,0.86,K,A*0C
$GPGGA,231434.250,4739.3124,N,12219.3012,W,1,05,1.53,3.9,M,-17.3,M,,*5E
$GPVTG,41.71,T,,M,0.43,N,0.79,K,A*07
$GPGGA,231434.500,4739.3124,N,12219.3010,W,1,05,1.53,4.2,M,-17.3,M,,*52
$GPVTG,35.73,T,,M,0.38,N,0.70,K,A*03
$GPGGA,231434.750,4739.3123,N,12219.3008,W,1,05,1.53,4.3,M,-17.3,M,,*5A
$GPRMC,231434.750,A,4739.3123,N,12219.3008,W,0.34,44.15,061221,,,A*40
$GPVTG,44.15,T,,M,0.34,N,0.62,K,A*0A
$GPGGA,231435.000,4739.3122,N,12219.3006,W,1,05,1.53,4.5,M,-17.3,M,,*50
$GPVTG,55.69,T,,M,0.32,N,0.60,K,A*05
$GPGGA,231435.250,4739.3121,N,12219.3004,W,1,05,1.53,4.6,M,-17.3,M,,*55
$GPVTG,54.74,T,,M,0.30,N,0.55,K,A*0C
$GPGGA,231435.500,4739.3120,N,12219.3003,W,1,05,1.53,4.8,M,-17.3,M,,*5F
$GPVTG,58.78,T,,M,0.24,N,0.44,K,A*09
$GPGGA,231435.750,4739.3119,N,12219.3001,W,1,05,1.53,5.0,M,-17.3,M,,*59
$GPRMC,231435.750,A,4739.3119,N,12219.3001,W,0.22,65.01,061221,,,A*40
$GPVTG,65.01,T,,M,0.22,N,0.41,K,A*0A
$GPGGA,231436.000,4739.3118,N,12219.3000,W,1,05,1.53,5.0,M,-17.3,M,,*58
$GPVTG,69.07,T,,M,0.24,N,0.44,K,A*03
$GPGGA,231436.250,4739.3118,N,12219.2998,W,1,05,1.53,5.2,M,-17.3,M,,*54
$GPVTG,67.09,T,,M,0.25,N,0.47,K,A*01
$GPGGA,231436.500,4739.3118,N,12219.2997,W,1,05,1.53,5.3,M,-17.3,M,,*58
$GPVTG,54.38,T,,M,0.23,N,0.42,K,A*00
$GPGGA,231436.750,4739.3117,N,12219.2996,W,1,05,1.53,5.5,M,-17.3,M,,*57
$GPRMC,231436.750,A,4739.3117,N,12219.2996,W,0.19,23.17,061221,,,A*46
$GPVTG,23.17,T,,M,0.19,N,0.36,K,A*07
$GPGGA,231437.000,4739.3117,N,12219.2996,W,1,05,1.53,5.7,M,-17.3,M,,*56
$GPVTG,345.43,T,,M,0.19,N,0.35,K,A*36
$GPGGA,231437.250,4739.3117,N,12219.2996,W,1,05,1.67,5.9,M,-17.3,M,,*58
$GPVTG,332.63,T,,M,0.21,N,0.39,K,A*33
$GPGGA,231437.500,4739.3116,N,12219.2995,W,1,05,1.53,6.0,M,-17.3,M,,*55
$GPVTG,324.32,T,,M,0.18,N,0.34,K,A*37
$GPGGA,231437.750,4739.3115,N,12219.2994,W,1,05,1.53,6.1,M,-17.3,M,,*51
$GPRMC,231437.750,A,4739.3115,N,12219.2994,W,0.12,348.67,061221,,,A*75
$GPVTG,348.67,T,,M,0.12,N,0.21,K,A*33
$GPGGA,231438.000,4739.3115,N,12219.2994,W,1,05,1.67,6.2,M,-17.3,M,,*58
$GPVTG,13.44,T,,M,0.11,N,0.21,K,A*0C
$GPGGA,231438.250,4739.3115,N,12219.2993,W,1,05,1.67,6.3,M,-17.3,M,,*59
$GPVTG,44.15,T,,M,0.14,N,0.27,K,A*09
$GPGGA,231438.500,4739.3114,N,12219.2993,W,1,05,1.53,6.4,M,-17.3,M,,*5A
$GPVTG,45.13,T,,M,0.09,N,0.16,K,A*00
$GPGGA,231438.750,4739.3114,N,12219.2993,W,1,05,1.53,6.4,M,-17.3,M,,*5D
$GPRMC,231438.750,A,4739.3114,N,12219.2993,W,0.05,43.09,061221,,,A*4A
$GPVTG,43.09,T,,M,0.05,N,0.09,K,A*0F
$GPGGA,231439.000,4739.3113,N,12219.2993,W,1,05,1.53,6.5,M,-17.3,M,,*58
$GPVTG,85.86,T,,M,0.05,N,0.09,K,A*02
$GPGGA,231439.250,4739.3113,N,12219.2993,W,1,05,1.53,6.6,M,-17.3,M,,*5C
$GPVTG,58.22,T,,M,0.03,N,0.05,K,A*06
$GPGGA,231439.500,4739.3114,N,12219.2993,W,1,05,1.53,6.7,M,-17.3,M,,*58
$GPVTG,55.76,T,,M,0.09,N,0.16,K,A*02
$GPGGA,231439.750,4739.3114,N,12219.2993,W,1,05,1.53,6.8,M,-17.3,M,,*50
$GPRMC,231439.750,A,4739.3114,N,12219.2993,W,0.11,34.80,061221,,,A*4F
$GPVTG,34.80,T,,M,0.11,N,0.21,K,A*01
$GPGGA,231440.000,4739.3115,N,12219.2993,W,1,05,1.53,6.9,M,-17.3,M,,*5C
$GPVTG,27.86,T,,M,0.14,N,0.25,K,A*04
$GPGGA,231440.250,4739.3115,N,12219.2993,W,1,05,1.53,7.0,M,-17.3,M,,*53
$GPVTG,24.12,T,,M,0.15,N,0.28,K,A*06
$GPGGA,231440.500,4739.3115,N,12219.2993,W,1,05,1.53,7.1,M,-17.3,M,,*50
$GPVTG,35.68,T,,M,0.18,N,0.34,K,A*0B
$GPGGA,231440.750,4739.3115,N,12219.2993,W,1,05,1.53,7.1,M,-17.3,M,,*57
$GPRMC,231440.750,A,4739.3115,N,12219.2993,W,0.18,43.86,061221,,,A*4F
$GPVTG,43.86,T,,M,0.18,N,0.33,K,A*0D
$GPGGA,231441.000,4739.3115,N,12219.2993,W,1,05,1.53,7.2,M,-17.3,M,,*57
$GPVTG,47.93,T,,M,0.18,N,0.33,K,A*0D
$GPGGA,231441.250,4739.3115,N,12219.2992,W,1,05,1.53,7.2,M,-17.3,M,,*51
$GPVTG,47.69,T,,M,0.19,N,0.34,K,A*0E
$GPGGA,231441.500,4739.3116,N,12219.2993,W,1,05,1.53,7.2,M,-17.3,M,,*51
$GPVTG,39.52,T,,M,0.18,N,0.34,K,A*0E
$GPGGA,231441.750,4739.3116,N,12219.2992,W,1,05,1.53,7.3,M,-17.3,M,,*56
$GPRMC,231441.750,A,4739.3116,N,12219.2992,W,0.19,36.80,061221,,,A*49
$GPVTG,36.80,T,,M,0.19,N,0.35,K,A*0E
$GPGGA,231442.000,4739.3116,N,12219.2993,W,1,05,1.53,7.3,M,-17.3,M,,*56
$GPVTG,25.56,T,,M,0.17,N,0.32,K,A*0E
$GPGGA,231442.250,4739.3116,N,12219.2993,W,1,05,1.53,7.4,M,-17.3,M,,*56
$GPVTG,20.05,T,,M,0.16,N,0.30,K,A*0E
$GPGGA,231442.500,4739.3116,N,12219.2993,W,1,05,1.53,7.5,M,-17.3,M,,*55
$GPVTG,7.88,T,,M,0.10,N,0.19,K,A*33
$GPGGA,231442.750,4739.3116,N,12219.2994,W,1,05,1.67,7.5,M,-17.3,M,,*52
$GPRMC,231442.750,A,4739.3116,N,12219.2994,W,0.07,353.30,061221,,,A*78
$GPVTG,353.30,T,,M,0.07,N,0.12,K,A*3F
$GPGGA,231443.000,4739.3117,N,12219.2994,W,1,05,1.67,7.6,M,-17.3,M,,*53
$GPVTG,345.61,T,,M,0.12,N,0.22,K,A*3B
$GPGGA,231443.250,4739.3118,N,12219.2994,W,1,05,1.67,7.7,M,-17.3,M,,*5A
$GPVTG,340.67,T,,M,0.13,N,0.25,K,A*3E
$GPGGA,231443.500,4739.3119,N,12219.2994,W,1,05,1.53,7.8,M,-17.3,M,,*51
$GPVTG,353.61,T,,M,0.13,N,0.24,K,A*3B
$GPGGA,231443.750,4739.3119,N,12219.2994,W,1,05,1.68,7.9,M,-17.3,M,,*5F
$GPRMC,231443.750,A,4739.3119,N,12219.2994,W,0.14,346.83,061221,,,A*78
$GPVTG,346.83,T,,M,0.14,N,0.25,K,A*35
$GPGGA,231444.000,4739.3119,N,12219.2994,W,1,05,1.67,8.0,M,-17.3,M,,*53
$GPVTG,336.59,T,,M,0.12,N,0.23,K,A*35
$GPGGA,231444.250,4739.3120,N,12219.2994,W,1,05,1.53,8.1,M,-17.3,M,,*58
$GPVTG,346.33,T,,M,0.12,N,0.23,K,A*3E
$GPGGA,231444.500,4739.3120,N,12219.2993,W,1,05,1.67,8.2,M,-17.3,M,,*59
$GPVTG,21.42,T,,M,0.09,N,0.16,K,A*06
$GPGGA,231444.750,4739.3120,N,12219.2993,W,1,05,1.53,8.2,M,-17.3,M,,*59
$GPRMC,231444.750,A,4739.3120,N,12219.2993,W,0.08,59.17,061221,,,A*4F
$GPVTG,59.17,T,,M,0.08,N,0.15,K,A*0B
$GPGGA,231445.000,4739.3120,N,12219.2992,W,1,05,1.53,8.3,M,-17.3,M,,*5A
$GPVTG,101.60,T,,M,0.12,N,0.23,K,A*39
$GPGGA,231445.250,4739.3120,N,12219.2992,W,1,05,1.53,8.4,M,-17.3,M,,*5A
$GPVTG,117.49,T,,M,0.15,N,0.28,K,A*39
$GPGGA,231445.500,4739.3120,N,12219.2992,W,1,05,1.53,8.5,M,-17.3,M,,*59
$GPVTG,123.83,T,,M,0.12,N,0.23,K,A*34
$GPGGA,231445.750,4739.3120,N,12219.2992,W,1,05,1.53,8.6,M,-17.3,M,,*5D
$GPRMC,231445.750,A,4739.3120,N,12219.2992,W,0.06,162.00,061221,,,A*7E
$GPVTG,162.00,T,,M,0.06,N,0.11,K,A*3E
$GPGGA,231446.000,4739.3120,N,12219.2992,W,1,05,1.53,8.7,M,-17.3,M,,*5D
$GPVTG,213.66,T,,M,0.09,N,0.17,K,A*32
$GPGGA,231446.250,4739.3120,N,12219.2992,W,1,05,1.53,8.8,M,-17.3,M,,*55
$GPVTG,213.46,T,,M,0.12,N,0.23,K,A*3D
$GPGGA,231446.500,4739.3121,N,12219.2992,W,1,05,1.53,8.8,M,-17.3,M,,*56
$GPVTG,208.48,T,,M,0.10,N,0.19,K,A*32
$GPGGA,231446.750,4739.3121,N,12219.2991,W,1,05,1.53,8.9,M,-17.3,M,,*53
$GPRMC,231446.750,A,4739.3121,N,12219.2991,W,0.10,206.22,061221,,,A*79
$GPVTG,206.22,T,,M,0.10,N,0.18,K,A*31
$GPGGA,231447.000,4739.3121,N,12219.2991,W,1,05,1.53,9.0,M,-17.3,M,,*58
$GPVTG,214.55,T,,M,0.11,N,0.21,K,A*39
$GPGGA,231447.250,4739.3121,N,12219.2991,W,1,05,1.53,9.0,M,-17.3,M,,*5F
$GPVTG,216.98,T,,M,0.11,N,0.21,K,A*3A
$GPGGA,231447.500,4739.3121,N,12219.2991,W,1,05,1.53,9.1,M,-17.3,M,,*5C
$GPVTG,230.42,T,,M,0.12,N,0.22,K,A*39
$GPGGA,231447.750,4739.3121,N,12219.2991,W,1,05,1.53,9.1,M,-17.3,M,,*5B
$GPRMC,231447.750,A,4739.3121,N,12219.2991,W,0.11,230.79,061221,,,A*72
$GPVTG,230.79,T,,M,0.11,N,0.20,K,A*30
$GPGGA,231448.000,4739.3121,N,12219.2990,W,1,05,1.53,9.3,M,-17.3,M,,*55
$GPVTG,246.25,T,,M,0.07,N,0.13,K,A*3F
$GPGGA,231448.250,4739.3122,N,12219.2990,W,1,05,1.53,9.4,M,-17.3,M,,*56
$GPVTG,272.11,T,,M,0.06,N,0.11,K,A*3C
$GPGGA,231448.500,4739.3122,N,12219.2990,W,1,05,1.53,9.4,M,-17.3,M,,*54
$GPVTG,205.86,T,,M,0.03,N,0.06,K,A*31
$GPGGA,231448.750,4739.3121,N,12219.2989,W,1,05,1.53,9.4,M,-17.3,M,,*58
$GPRMC,231448.750,A,4739.3121,N,12219.2989,W,0.08,176.52,061221,,,A*74
$GPVTG,176.52,T,,M,0.08,N,0.14,K,A*37
$GPGGA,231449.000,4739.3121,N,12219.2989,W,1,05,1.53,9.4,M,-17.3,M,,*5B
$GPVTG,169.12,T,,M,0.09,N,0.17,K,A*3F
$GPGGA,231449.250,4739.3121,N,12219.2989,W,1,05,1.53,9.4,M,-17.3,M,,*5C
$GPVTG,157.66,T,,M,0.11,N,0.20,K,A*3C
$GPGGA,231449.500,4739.3121,N,12219.2988,W,1,05,1.53,9.5,M,-17.3,M,,*5E
$GPVTG,147.04,T,,M,0.14,N,0.25,K,A*39
$GPGGA,231449.750,4739.3120,N,12219.2988,W,1,05,1.53,9.5,M,-17.3,M,,*58
$GPRMC,231449.750,A,4739.3120,N,12219.2988,W,0.14,142.26,061221,,,A*7C
$GPVTG,142.26,T,,M,0.14,N,0.27,K,A*3E
$GPGGA,231450.000,4739.3120,N,12219.2988,W,1,05,1.53,9.6,M,-17.3,M,,*51
$GPVTG,145.89,T,,M,0.13,N,0.25,K,A*39
$GPGGA,231450.250,4739.3120,N,12219.2988,W,1,05,1.53,9.6,M,-17.3,M,,*56
$GPVTG,143.88,T,,M,0.13,N,0.25,K,A*3E
$GPGGA,231450.500,4739.3120,N,12219.2988,W,1,05,1.53,9.7,M,-17.3,M,,*55
$GPVTG,157.72,T,,M,0.07,N,0.13,K,A*3E
$GPGGA,231450.750,4739.3119,N,12219.2988,W,1,05,1.53,9.7,M,-17.3,M,,*58
$GPRMC,231450.750,A,4739.3119,N,12219.2988,W,0.11,207.00,061221,,,A*7D
$GPVTG,207.00,T,,M,0.11,N,0.20,K,A*3A
$GPGGA,231451.000,4739.3119,N,12219.2989,W,1,05,1.53,9.8,M,-17.3,M,,*55
$GPVTG,228.73,T,,M,0.19,N,0.35,K,A*3F
$GPGGA,231451.250,4739.3119,N,12219.2989,W,1,05,1.53,9.9,M,-17.3,M,,*53
$GPVTG,242.61,T,,M,0.20,N,0.37,K,A*38
$GPGGA,231451.500,4739.3118,N,12219.2988,W,1,05,1.53,9.9,M,-17.3,M,,*51
$GPVTG,234.37,T,,M,0.20,N,0.37,K,A*3A
$GPGGA,231451.750,4739.3118,N,12219.2989,W,1,05,1.53,9.9,M,-17.3,M,,*57
$GPRMC,231451.750,A,4739.3118,N,12219.2989,W,0.20,232.50,061221,,,A*7D
$GPVTG,232.50,T,,M,0.20,N,0.37,K,A*3D
$GPGGA,231452.000,4739.3118,N,12219.2989,W,1,05,1.53,9.9,M,-17.3,M,,*56
$GPVTG,236.91,T,,M,0.15,N,0.27,K,A*33
$GPGGA,231452.250,4739.3118,N,12219.2989,W,1,05,1.53,9.9,M,-17.3,M,,*51
$GPVTG,223.52,T,,M,0.09,N,0.17,K,A*36
$GPGGA,231452.500,4739.3118,N,12219.2989,W,1,05,1.53,9.9,M,-17.3,M,,*53
$GPVTG,222.06,T,,M,0.07,N,0.14,K,A*3B
$GPGGA,231452.750,4739.3118,N,12219.2989,W,1,05,1.52,10.0,M,-17.3,M,,*64
$GPRMC,231452.750,A,4739.3118,N,12219.2989,W,0.01,45.24,061221,,,A*4C
$GPVTG,45.24,T,,M,0.01,N,0.02,K,A*09
$GPGGA,231453.000,4739.3118,N,12219.2989,W,1,05,1.53,10.0,M,-17.3,M,,*66
$GPVTG,110.91,T,,M,0.02,N,0.05,K,A*32
$GPGGA,231453.250,4739.3118,N,12219.2989,W,1,05,1.53,10.0,M,-17.3,M,,*61
$GPVTG,130.88,T,,M,0.02,N,0.04,K,A*39
$GPGGA,231453.500,4739.3118,N,12219.2989,W,1,05,1.53,10.0,M,-17.3,M,,*63
$GPVTG,160.50,T,,M,0.03,N,0.05,K,A*39
$GPGGA,231453.750,4739.3118,N,12219.2989,W,1,05,1.53,10.0,M,-17.3,M,,*64
$GPRMC,231453.750,A,4739.3118,N,12219.2989,W,0.05,181.21,061221,,,A*75
$GPVTG,181.21,T,,M,0.05,N,0.09,K,A*3A
$GPGGA,231454.000,4739.3118,N,12219.2989,W,1,05,1.53,10.0,M,-17.3,M,,*61
$GPVTG,154.59,T,,M,0.06,N,0.10,K,A*36
$GPGGA,231454.250,4739.3118,N,12219.2989,W,1,07,1.23,10.0,M,-17.3,M,,*63
$GPVTG,98.59,T,,M,0.07,N,0.13,K,A*05
$GPGGA,231454.500,4739.3118,N,12219.2989,W,1,07,1.23,10.0,M,-17.3,M,,*61
$GPVTG,83.95,T,,M,0.11,N,0.20,K,A*08
$GPGGA,231454.750,4739.3118,N,12219.2989,W,1,07,1.23,10.0,M,-17.3,M,,*66
$GPRMC,231454.750,A,4739.3118,N,12219.2989,W,0.08,93.57,061221,,,A*4C
$GPVTG,93.57,T,,M,0.08,N,0.15,K,A*09
$GPGGA,231455.000,4739.3118,N,12219.2989,W,1,07,1.23,10.0,M,-17.3,M,,*65
$GPVTG,33.45,T,,M,0.07,N,0.13,K,A*09
$GPGGA,231455.250,4739.3118,N,12219.2989,W,1,07,1.23,10.0,M,-17.3,M,,*62
$GPVTG,18.95,T,,M,0.10,N,0.19,K,A*01
$GPGGA,231455.500,4739.3118,N,12219.2989,W,1,07,1.23,10.0,M,-17.3,M,,*60
$GPVTG,10.16,T,,M,0.17,N,0.31,K,A*0F
$GPGGA,231455.750,4739.3118,N,12219.2989,W,1,07,1.36,10.0,M,-17.3,M,,*63
$GPRMC,231455.750,A,4739.3118,N,12219.2989,W,0.18,5.63,061221,,,A*74
$GPVTG,5.63,T,,M,0.18,N,0.34,K,A*33
$GPGGA,231456.000,4739.3118,N,12219.2989,W,1,07,1.36,10.0,M,-17.3,M,,*62
$GPVTG,0.61,T,,M,0.17,N,0.32,K,A*3D
$GPGGA,231456.250,4739.3118,N,12219.2989,W,1,07,1.36,10.0,M,-17.3,M,,*65
$GPVTG,355.43,T,,M,0.18,N,0.32,K,A*31
$GPGGA,231456.500,4739.3118,N,12219.2989,W,1,07,1.36,10.0,M,-17.3,M,,*67
$GPVTG,343.23,T,,M,0.19,N,0.34,K,A*37
$GPGGA,231456.750,4739.3118,N,12219.2989,W,1,07,1.23,10.0,M,-17.3,M,,*64
$GPRMC,231456.750,A,4739.3118,N,12219.2989,W,0.17,332.43,061221,,,A*7D
$GPVTG,332.43,T,,M,0.17,N,0.31,K,A*3C
$GPGGA,231457.000,4739.3119,N,12219.2989,W,1,07,1.23,10.0,M,-17.3,M,,*66
$GPVTG,336.76,T,,M,0.12,N,0.22,K,A*39
$GPGGA,231457.250,4739.3119,N,12219.2989,W,1,07,1.23,10.0,M,-17.3,M,,*61
$GPVTG,350.12,T,,M,0.12,N,0.22,K,A*3B
$GPGGA,231457.500,4739.3119,N,12219.2989,W,1,07,1.36,10.0,M,-17.3,M,,*67
$GPVTG,8.16,T,,M,0.18,N,0.32,K,A*3A
$GPGGA,231457.750,4739.3119,N,12219.2989,W,1,07,1.36,10.0,M,-17.3,M,,*60
$GPRMC,231457.750,A,4739.3119,N,12219.2989,W,0.29,20.64,061221,,,A*45
$GPVTG,20.64,T,,M,0.29,N,0.54,K,A*07
$GPGGA,231458.000,4739.3119,N,12219.2989,W,1,07,1.23,10.0,M,-17.3,M,,*69
$GPVTG,1.91,T,,M,0.27,N,0.51,K,A*35
$GPGGA,231458.250,4739.3119,N,12219.2988,W,1,07,1.23,10.0,M,-17.3,M,,*6F
$GPVTG,3.85,T,,M,0.27,N,0.50,K,A*33
$GPGGA,231458.500,4739.3119,N,12219.2988,W,1,07,1.23,10.0,M,-17.3,M,,*6D
$GPVTG,5.36,T,,M,0.24,N,0.45,K,A*3A
$GPGGA,231458.750,4739.3120,N,12219.2988,W,1,07,1.23,10.0,M,-17.3,M,,*60
$GPRMC,231458.750,A,4739.3120,N,12219.2988,W,0.21,6.15,061221,,,A*7B
$GPVTG,6.15,T,,M,0.21,N,0.40,K,A*38
$GPGGA,231459.000,4739.3120,N,12219.2988,W,1,07,1.23,10.0,M,-17.3,M,,*63
$GPVTG,6.95,T,,M,0.13,N,0.24,K,A*33
$GPGGA,231459.250,4739.3120,N,12219.2988,W,1,07,1.23,10.0,M,-17.3,M,,*64
$GPVTG,8.41,T,,M,0.10,N,0.19,K,A*39
$GPGGA,231459.500,4739.3120,N,12219.2988,W,1,07,1.23,10.0,M,-17.3,M,,*66
$GPVTG,55.86,T,,M,0.14,N,0.27,K,A*03
$GPGGA,231459.750,4739.3120,N,12219.2988,W,1,07,1.23,10.0,M,-17.3,M,,*61
$GPRMC,231459.750,A,4739.3120,N,12219.2988,W,0.11,78.21,061221,,,A*47
$GPVTG,78.21,T,,M,0.11,N,0.21,K,A*02
$GPGGA,231500.000,4739.3120,N,12219.2988,W,1,07,1.23,10.0,M,-17.3,M,,*6E
$GPVTG,109.57,T,,M,0.07,N,0.13,K,A*32
$GPGGA,231500.250,4739.3120,N,12219.2988,W,1,07,1.23,10.0,M,-17.3,M,,*69
$GPVTG,128.69,T,,M,0.04,N,0.08,K,A*35
$GPGGA,231500.500,4739.3120,N,12219.2988,W,1,07,1.23,10.0,M,-17.3,M,,*6B
$GPVTG,104.60,T,,M,0.02,N,0.04,K,A*38
$GPGGA,231500.750,4739.3120,N,12219.2988,W,1,07,1.23,10.0,M,-17.3,M,,*6C
$GPRMC,231500.750,A,4739.3120,N,12219.2988,W,0.13,71.26,061221,,,A*46
$GPVTG,71.26,T,,M,0.13,N,0.24,K,A*0B
$GPGGA,231501.000,4739.3120,N,12219.2987,W,1,07,1.23,10.0,M,-17.3,M,,*60
$GPVTG,65.33,T,,M,0.18,N,0.32,K,A*06
$GPGGA,231501.250,4739.3120,N,12219.2987,W,1,07,1.23,10.0,M,-17.3,M,,*67
$GPVTG,63.06,T,,M,0.18,N,0.33,K,A*07
$GPGGA,231501.500,4739.3120,N,12219.2987,W,1,07,1.23,10.0,M,-17.3,M,,*65
$GPVTG,57.46,T,,M,0.14,N,0.25,K,A*0F
$GPGGA,231501.750,4739.3120,N,12219.2987,W,1,07,1.23,10.0,M,-17.3,M,,*62
$GPRMC,231501.750,A,4739.3120,N,12219.2987,W,0.10,26.16,061221,,,A*4A
$GPVTG,26.16,T,,M,0.10,N,0.18,K,A*06
$GPGGA,231502.000,4739.3120,N,12219.2987,W,1,07,1.23,10.0,M,-17.3,M,,*63
$GPVTG,345.95,T,,M,0.09,N,0.16,K,A*3D
$GPGGA,231502.250,4739.3120,N,12219.2987,W,1,07,1.36,10.0,M,-17.3,M,,*60
$GPVTG,332.72,T,,M,0.07,N,0.13,K,A*3F
$GPGGA,231502.500,4739.3120,N,12219.2987,W,1,07,1.23,10.0,M,-17.3,M,,*66
$GPVTG,330.64,T,,M,0.04,N,0.07,K,A*3C
$GPGGA,231502.750,4739.3120,N,12219.2987,W,1,07,1.23,10.0,M,-17.3,M,,*61
$GPRMC,231502.750,A,4739.3120,N,12219.2987,W,0.08,270.56,061221,,,A*75
$GPVTG,270.56,T,,M,0.08,N,0.14,K,A*36
$GPGGA,231503.000,4739.3120,N,12219.2987,W,1,07,1.23,10.0,M,-17.3,M,,*62
$GPVTG,260.42,T,,M,0.15,N,0.27,K,A*3E
$GPGGA,231503.250,4739.3120,N,12219.2987,W,1,07,1.23,10.0,M,-17.3,M,,*65
$GPVTG,254.55,T,,M,0.13,N,0.24,K,A*3A
$GPGGA,231503.500,4739.3120,N,12219.2987,W,1,07,1.23,10.0,M,-17.3,M,,*67
$GPVTG,241.75,T,,M,0.12,N,0.23,K,A*3A
$GPGGA,231503.750,4739.3120,N,12219.2988,W,1,07,1.23,10.0,M,-17.3,M,,*6F
$GPRMC,231503.750,A,4739.3120,N,12219.2988,W,0.14,244.40,061221,,,A*76
$GPVTG,244.40,T,,M,0.14,N,0.25,K,A*39
$GPGGA,231504.000,4739.3120,N,12219.2988,W,1,07,1.23,10.1,M,-17.3,M,,*6B
$GPVTG,232.86,T,,M,0.11,N,0.21,K,A*33
$GPGGA,231504.250,4739.3120,N,12219.2988,W,1,07,1.23,10.1,M,-17.3,M,,*6C
$GPVTG,218.86,T,,M,0.09,N,0.17,K,A*37
$GPGGA,231504.500,4739.3120,N,12219.2988,W,1,07,1.23,10.1,M,-17.3,M,,*6E
$GPVTG,198.86,T,,M,0.06,N,0.11,K,A*35
$GPGGA,231504.750,4739.3120,N,12219.2988,W,1,07,1.23,10.1,M,-17.3,M,,*69
$GPRMC,231504.750,A,4739.3120,N,12219.2988,W,0.06,188.51,061221,,,A*71
$GPVTG,188.51,T,,M,0.06,N,0.11,K,A*3E
$GPGGA,231505.000,4739.3120,N,12219.2988,W,1,07,1.23,10.1,M,-17.3,M,,*6A
$GPVTG,202.30,T,,M,0.04,N,0.07,K,A*3D
$GPGGA,231505.250,4739.3120,N,12219.2988,W,1,07,1.23,10.1,M,-17.3,M,,*6D
$GPVTG,220.66,T,,M,0.05,N,0.09,K,A*31
$GPGGA,231505.500,4739.3120,N,12219.2988,W,1,07,1.23,10.1,M,-17.3,M,,*6F
$GPVTG,214.28,T,,M,0.09,N,0.16,K,A*3E
$GPGGA,231505.750,4739.3120,N,12219.2988,W,1,07,1.23,10.1,M,-17.3,M,,*68
$GPRMC,231505.750,A,4739.3120,N,12219.2988,W,0.12,206.62,061221,,,A*70
$GPVTG,206.62,T,,M,0.12,N,0.22,K,A*3E
$GPGGA,231506.000,4739.3120,N,12219.2988,W,1,07,1.23,10.1,M,-17.3,M,,*69
$GPVTG,185.97,T,,M,0.13,N,0.24,K,A*3B
$GPGGA,231506.250,4739.3120,N,12219.2988,W,1,07,1.23,10.1,M,-17.3,M,,*6E
$GPVTG,183.02,T,,M,0.14,N,0.25,K,A*37
$GPGGA,231506.500,4739.3120,N,12219.2988,W,1,07,1.23,10.1,M,-17.3,M,,*6C
$GPVTG,157.93,T,,M,0.09,N,0.16,K,A*3A
$GPGGA,231506.750,4739.3119,N,12219.2988,W,1,07,1.23,10.1,M,-17.3,M,,*61
$GPRMC,231506.750,A,4739.3119,N,12219.2988,W,0.07,165.10,061221,,,A*7E
$GPVTG,165.10,T,,M,0.07,N,0.13,K,A*3B
$GPGGA,231507.000,4739.3119,N,12219.2988,W,1,07,1.23,10.1,M,-17.3,M,,*62
$GPVTG,173.88,T,,M,0.07,N,0.12,K,A*3C
$GPGGA,231507.250,4739.3119,N,12219.2988,W,1,07,1.23,10.1,M,-17.3,M,,*65
$GPVTG,211.90,T,,M,0.07,N,0.14,K,A*34
$GPGGA,231507.500,4739.3119,N,12219.2988,W,1,07,1.23,10.1,M,-17.3,M,,*67
$GPVTG,227.08,T,,M,0.05,N,0.09,K,A*3E
$GPGGA,231507.750,4739.3119,N,12219.2988,W,1,07,1.23,10.1,M,-17.3,M,,*60
$GPRMC,231507.750,A,4739.3119,N,12219.2988,W,0.01,183.70,061221,,,A*77
$GPVTG,183.70,T,,M,0.01,N,0.02,K,A*33
$GPGGA,231508.000,4739.3119,N,12219.2988,W,1,07,1.23,10.1,M,-17.3,M,,*6D
$GPVTG,42.13,T,,M,0.01,N,0.03,K,A*0B
$GPGGA,231508.250,4739.3119,N,12219.2988,W,1,07,1.23,10.1,M,-17.3,M,,*6A
$GPVTG,47.21,T,,M,0.05,N,0.09,K,A*01
$GPGGA,231508.500,4739.3119,N,12219.2988,W,1,07,1.23,10.1,M,-17.3,M,,*68
$GPVTG,42.72,T,,M,0.07,N,0.14,K,A*0C
$GPGGA,231508.750,4739.3119,N,12219.2988,W,1,07,1.23,10.1,M,-17.3,M,,*6F
$GPRMC,231508.750,A,4739.3119,N,12219.2988,W,0.11,46.72,061221,,,A*43
$GPVTG,46.72,T,,M,0.11,N,0.20,K,A*08
$GPGGA,231509.000,4739.3119,N,12219.2988,W,1,07,1.23,10.1,M,-17.3,M,,*6C
$GPVTG,63.85,T,,M,0.09,N,0.17,K,A*0A
$GPGGA,231509.250,4739.3119,N,12219.2988,W,1,07,1.23,10.1,M,-17.3,M,,*6B
$GPVTG,68.40,T,,M,0.08,N,0.14,K,A*0A
$GPGGA,231509.500,4739.3120,N,12219.2988,W,1,07,1.23,10.1,M,-17.3,M,,*63
$GPVTG,100.86,T,,M,0.04,N,0.08,K,A*3E
$GPGGA,231509.750,4739.3119,N,12219.2988,W,1,07,1.23,10.1,M,-17.3,M,,*6E
$GPRMC,231509.750,A,4739.3119,N,12219.2988,W,0.04,214.34,061221,,,A*71
$GPVTG,214.34,T,,M,0.04,N,0.08,K,A*31
$GPGGA,231510.000,4739.3119,N,12219.2988,W,1,07,1.23,10.1,M,-17.3,M,,*64
$GPVTG,252.60,T,,M,0.09,N,0.16,K,A*30
$GPGGA,231510.250,4739.3119,N,12219.2988,W,1,07,1.23,10.1,M,-17.3,M,,*63
$GPVTG,251.63,T,,M,0.11,N,0.20,K,A*3C
$GPGGA,231510.500,4739.3119,N,12219.2988,W,1,07,1.36,10.1,M,-17.3,M,,*65
$GPVTG,273.36,T,,M,0.06,N,0.11,K,A*38
$GPGGA,231510.750,4739.3119,N,12219.2988,W,1,07,1.36,10.1,M,-17.3,M,,*62
$GPRMC,231510.750,A,4739.3119,N,12219.2988,W,0.03,298.95,061221,,,A*71
$GPVTG,298.95,T,,M,0.03,N,0.05,K,A*34
$GPGGA,231511.000,4739.3119,N,12219.2988,W,1,07,1.36,10.1,M,-17.3,M,,*61
$GPVTG,287.12,T,,M,0.03,N,0.05,K,A*35
$GPGGA,231511.250,4739.3119,N,12219.2988,W,1,07,1.36,10.1,M,-17.3,M,,*66
$GPVTG,24.27,T,,M,0.00,N,0.01,K,A*0F
$GPGGA,231511.500,4739.3119,N,12219.2988,W,1,07,1.36,10.1,M,-17.3,M,,*64
$GPVTG,232.04,T,,M,0.04,N,0.08,K,A*36
$GPGGA,231511.750,4739.3119,N,12219.2988,W,1,07,1.36,10.1,M,-17.3,M,,*63
$GPRMC,231511.750,A,4739.3119,N,12219.2988,W,0.00,181.48,061221,,,A*78
$GPVTG,181.48,T,,M,0.00,N,0.01,K,A*38
$GPGGA,231512.000,4739.3119,N,12219.2988,W,1,07,1.36,10.1,M,-17.3,M,,*62
$GPVTG,128.84,T,,M,0.01,N,0.01,K,A*3A
$GPGGA,231512.250,4739.3119,N,12219.2988,W,1,07,1.36,10.1,M,-17.3,M,,*65
$GPVTG,226.87,T,,M,0.02,N,0.05,K,A*33
$GPGGA,231512.500,4739.3119,N,12219.2988,W,1,07,1.36,10.1,M,-17.3,M,,*67
$GPVTG,241.72,T,,M,0.05,N,0.09,K,A*33
$GPGGA,231512.750,4739.3119,N,12219.2988,W,1,07,1.36,10.1,M,-17.3,M,,*60
$GPRMC,231512.750,A,4739.3119,N,12219.2988,W,0.01,333.85,061221,,,A*70
$GPVTG,333.85,T,,M,0.01,N,0.02,K,A*30
$GPGGA,231513.000,4739.3119,N,12219.2988,W,1,07,1.36,10.1,M,-17.3,M,,*63
$GPVTG,30.76,T,,M,0.03,N,0.05,K,A*09
$GPGGA,231513.250,4739.3119,N,12219.2988,W,1,07,1.36,10.1,M,-17.3,M,,*64
$GPVTG,230.74,T,,M,0.00,N,0.01,K,A*3E
$GPGGA,231513.500,4739.3119,N,12219.2988,W,1,07,1.36,10.1,M,-17.3,M,,*66
$GPVTG,331.87,T,,M,0.02,N,0.03,K,A*32
$GPGGA,231513.750,4739.3119,N,12219.2988,W,1,07,1.36,10.1,M,-17.3,M,,*61
$GPRMC,231513.750,A,4739.3119,N,12219.2988,W,0.01,263.80,061221,,,A*70
$GPVTG,263.80,T,,M,0.01,N,0.02,K,A*31
$GPGGA,231514.000,4739.3119,N,12219.2988,W,1,07,1.36,10.1,M,-17.3,M,,*64
$GPVTG,207.34,T,,M,0.05,N,0.10,K,A*3B
$GPGGA,231514.250,4739.3119,N,12219.2988,W,1,07,1.36,10.1,M,-17.3,M,,*63
$GPVTG,206.47,T,,M,0.05,N,0.09,K,A*36
$GPGGA,231514.500,4739.3119,N,12219.2988,W,1,07,1.36,10.1,M,-17.3,M,,*61
$GPVTG,220.51,T,,M,0.04,N,0.07,K,A*3A
$GPGGA,231514.750,4739.3119,N,12219.2988,W,1,07,1.36,10.1,M,-17.3,M,,*66
$GPRMC,231514.750,A,4739.3119,N,12219.2988,W,0.02,263.33,061221,,,A*7C
$GPVTG,263.33,T,,M,0.02,N,0.03,K,A*3B
$GPGGA,231515.000,4739.3119,N,12219.2988,W,1,07,1.36,10.1,M,-17.3,M,,*65
$GPVTG,321.44,T,,M,0.01,N,0.01,K,A*3D
$GPGGA,231515.250,4739.3119,N,12219.2988,W,1,07,1.36,10.1,M,-17.3,M,,*62
$GPVTG,0.00,T,,M,0.00,N,0.00,K,A*3D
$GPGGA,231515.500,4739.3119,N,12219.2988,W,1,07,1.36,10.1,M,-17.3,M,,*60
$GPVTG,2.39,T,,M,0.01,N,0.03,K,A*37
$GPGGA,231515.750,4739.3119,N,12219.2988,W,1,07,1.36,10.1,M,-17.3,M,,*67
$GPRMC,231515.750,A,4739.3119,N,12219.2988,W,0.01,349.22,061221,,,A*77
$GPVTG,349.22,T,,M,0.01,N,0.02,K,A*30
$GPGGA,231516.000,4739.3119,N,12219.2988,W,1,07,1.36,10.1,M,-17.3,M,,*66
$GPVTG,28.30,T,,M,0.01,N,0.01,K,A*04
$GPGGA,231516.250,4739.3119,N,12219.2988,W,1,07,1.36,10.1,M,-17.3,M,,*61
$GPVTG,162.68,T,,M,0.00,N,0.01,K,A*37
$GPGGA,231516.500,4739.3119,N,12219.2988,W,1,07,1.36,10.1,M,-17.3,M,,*63
$GPVTG,185.81,T,,M,0.01,N,0.01,K,A*38
$GPGGA,231516.750,4739.3119,N,12219.2988,W,1,07,1.36,10.1,M,-17.3,M,,*64
$GPRMC,231516.750,A,4739.3119,N,12219.2988,W,0.02,61.62,061221,,,A*4A
$GPVTG,61.62,T,,M,0.02,N,0.03,K,A*0F
$GPGGA,231517.000,4739.3119,N,12219.2988,W,1,07,1.36,10.1,M,-17.3,M,,*67
$GPVTG,172.91,T,,M,0.01,N,0.02,K,A*32
$GPGGA,231517.250,4739.3119,N,12219.2988,W,1,07,1.36,10.1,M,-17.3,M,,*60
$GPVTG,0.00,T,,M,0.00,N,0.00,K,A*3D
$GPGGA,231517.500,4739.3119,N,12219.2988,W,1,07,1.36,10.1,M,-17.3,M,,*62
$GPVTG,114.18,T,,M,0.00,N,0.00,K,A*30
$GPGGA,231517.750,4739.3119,N,12219.2988,W,1,07,1.36,10.1,M,-17.3,M,,*65
$GPRMC,231517.750,A,4739.3119,N,12219.2988,W,0.01,195.22,061221,,,A*76
$GPVTG,195.22,T,,M,0.01,N,0.02,K,A*33
$GPGGA,231518.000,4739.3119,N,12219.2988,W,1,07,1.36,10.1,M,-17.3,M,,*68
$GPVTG,172.21,T,,M,0.01,N,0.02,K,A*39
$GPGGA,231518.250,4739.3119,N,12219.2988,W,1,07,1.36,10.1,M,-17.3,M,,*6F
$GPVTG,214.42,T,,M,0.01,N,0.02,K,A*3F
$GPGGA,231518.500,4739.3119,N,12219.2988,W,1,07,1.36,10.1,M,-17.3,M,,*6D
$GPVTG,244.98,T,,M,0.02,N,0.03,K,A*3F
$GPGGA,231518.750,4739.3119,N,12219.2988,W,1,07,1.36,10.1,M,-17.3,M,,*6A
$GPRMC,231518.750,A,4739.3119,N,12219.2988,W,0.03,216.77,061221,,,A*73
$GPVTG,216.77,T,,M,0.03,N,0.05,K,A*3E
$GPGGA,231519.000,4739.3119,N,12219.2988,W,1,07,1.36,10.1,M,-17.3,M,,*69
$GPVTG,165.02,T,,M,0.01,N,0.02,K,A*3E
$GPGGA,231519.250,4739.3119,N,12219.2988,W,1,07,1.36,10.2,M,-17.3,M,,*6D
$GPVTG,103.38,T,,M,0.01,N,0.02,K,A*37
$GPGGA,231519.500,4739.3119,N,12219.2988,W,1,07,1.36,10.2,M,-17.3,M,,*6F
$GPVTG,148.10,T,,M,0.01,N,0.02,K,A*32
$GPGGA,231519.750,4739.3119,N,12219.2988,W,1,07,1.35,10.2,M,-17.3,M,,*6B
$GPRMC,231519.750,A,4739.3119,N,12219.2988,W,0.01,188.30,061221,,,A*77
$GPVTG,188.30,T,,M,0.01,N,0.02,K,A*3C
$GPGGA,231520.000,4739.3119,N,12219.2988,W,1,07,1.35,10.2,M,-17.3,M,,*63
$GPVTG,1.57,T,,M,0.02,N,0.03,K,A*3F
$GPGGA,231520.250,4739.3119,N,12219.2988,W,1,07,1.36,10.2,M,-17.3,M,,*67
$GPVTG,11.52,T,,M,0.01,N,0.01,K,A*0A
$GPGGA,231520.500,4739.3119,N,12219.2988,W,1,07,1.35,10.2,M,-17.3,M,,*66
$GPVTG,185.72,T,,M,0.02,N,0.03,K,A*35
$GPGGA,231520.750,4739.3119,N,12219.2988,W,1,07,1.35,10.2,M,-17.3,M,,*61
$GPRMC,231520.750,A,4739.3119,N,12219.2988,W,0.02,200.20,061221,,,A*7C
$GPVTG,200.20,T,,M,0.02,N,0.03,K,A*3C
$GPGGA,231521.000,4739.3119,N,12219.2988,W,1,07,1.35,10.2,M,-17.3,M,,*62
$GPVTG,297.83,T,,M,0.01,N,0.02,K,A*39
$GPGGA,231521.250,4739.3119,N,12219.2988,W,1,07,1.35,10.2,M,-17.3,M,,*65
$GPVTG,3.90,T,,M,0.02,N,0.03,K,A*36
$GPGGA,231521.500,4739.3119,N,12219.2988,W,1,07,1.35,10.2,M,-17.3,M,,*67
$GPVTG,326.32,T,,M,0.01,N,0.02,K,A*38
$GPGGA,231521.750,4739.3119,N,12219.2988,W,1,07,1.35,10.2,M,-17.3,M,,*60
$GPRMC,231521.750,A,4739.3119,N,12219.2988,W,0.01,236.46,061221,,,A*7B
$GPVTG,236.46,T,,M,0.01,N,0.01,K,A*38
$GPGGA,231522.000,4739.3119,N,12219.2988,W,1,07,1.35,10.2,M,-17.3,M,,*61
$GPVTG,120.69,T,,M,0.00,N,0.01,K,A*30
$GPGGA,231522.250,4739.3119,N,12219.2988,W,1,07,1.35,10.2,M,-17.3,M,,*66
$GPVTG,13.22,T,,M,0.01,N,0.02,K,A*0C
$GPGGA,231522.500,4739.3119,N,12219.2988,W,1,07,1.36,10.2,M,-17.3,M,,*67
$GPVTG,9.74,T,,M,0.01,N,0.03,K,A*35
$GPGGA,231522.750,4739.3119,N,12219.2988,W,1,07,1.35,10.2,M,-17.3,M,,*63
$GPRMC,231522.750,A,4739.3119,N,12219.2988,W,0.00,358.48,061221,,,A*7E
$GPVTG,358.48,T,,M,0.00,N,0.01,K,A*3E
$GPGGA,231523.000,4739.3119,N,12219.2988,W,1,07,1.35,10.2,M,-17.3,M,,*60
$GPVTG,142.38,T,,M,0.00,N,0.01,K,A*30
$GPGGA,231523.250,4739.3119,N,12219.2988,W,1,07,1.35,10.2,M,-17.3,M,,*67
$GPVTG,237.22,T,,M,0.00,N,0.01,K,A*3A
$GPGGA,231523.500,4739.3119,N,12219.2988,W,1,07,1.35,10.2,M,-17.3,M,,*65
$GPVTG,267.26,T,,M,0.00,N,0.01,K,A*3B
$GPGGA,231523.750,4739.3120,N,12219.2988,W,1,07,1.35,10.2,M,-17.3,M,,*68
$GPRMC,231523.750,A,4739.3120,N,12219.2988,W,0.01,355.69,061221,,,A*7A
$GPVTG,355.69,T,,M,0.01,N,0.01,K,A*31
$GPGGA,231524.000,4739.3120,N,12219.2988,W,1,07,1.35,10.2,M,-17.3,M,,*6D
$GPVTG,284.02,T,,M,0.00,N,0.01,K,A*30
$GPGGA,231524.250,4739.3120,N,12219.2988,W,1,08,1.27,10.2,M,-17.3,M,,*66
$GPVTG,215.17,T,,M,0.00,N,0.01,K,A*3C
$GPGGA,231524.500,4739.3120,N,12219.2988,W,1,08,1.27,10.2,M,-17.3,M,,*64
$GPVTG,331.56,T,,M,0.01,N,0.01,K,A*3F
$GPGGA,231524.750,4739.3120,N,12219.2988,W,1,08,1.27,10.2,M,-17.3,M,,*63
$GPRMC,231524.750,A,4739.3120,N,12219.2988,W,0.02,341.94,061221,,,A*79
$GPVTG,341.94,T,,M,0.02,N,0.03,K,A*37
$GPGGA,231525.000,4739.3120,N,12219.2988,W,1,08,1.27,10.2,M,-17.3,M,,*60
$GPVTG,40.39,T,,M,0.01,N,0.02,K,A*00
$GPGGA,231525.250,4739.3120,N,12219.2988,W,1,08,1.27,10.2,M,-17.3,M,,*67
$GPVTG,33.83,T,,M,0.00,N,0.01,K,A*07
$GPGGA,231525.500,4739.3120,N,12219.2988,W,1,08,1.27,10.2,M,-17.3,M,,*65
$GPVTG,328.85,T,,M,0.01,N,0.02,K,A*3A
$GPGGA,231525.750,4739.3120,N,12219.2988,W,1,08,1.27,10.2,M,-17.3,M,,*62
$GPRMC,231525.750,A,4739.3120,N,12219.2988,W,0.01,299.04,061221,,,A*76
$GPVTG,299.04,T,,M,0.01,N,0.02,K,A*38
$GPGGA,231526.000,4739.3120,N,12219.2988,W,1,08,1.27,10.2,M,-17.3,M,,*63
$GPVTG,305.92,T,,M,0.00,N,0.01,K,A*31
$GPGGA,231526.250,4739.3120,N,12219.2988,W,1,08,1.27,10.2,M,-17.3,M,,*64
$GPVTG,346.89,T,,M,0.01,N,0.02,K,A*3E
$GPGGA,231526.500,4739.3120,N,12219.2988,W,1,08,1.27,10.2,M,-17.3,M,,*66
$GPVTG,5.33,T,,M,0.01,N,0.02,K,A*3B
$GPGGA,231526.750,4739.3120,N,12219.2988,W,1,08,1.27,10.2,M,-17.3,M,,*61
$GPRMC,231526.750,A,4739.3120,N,12219.2988,W,0.01,24.89,061221,,,A*44
$GPVTG,24.89,T,,M,0.01,N,0.03,K,A*08
$GPGGA,231527.000,4739.3120,N,12219.2988,W,1,08,1.27,10.3,M,-17.3,M,,*63
$GPVTG,3.28,T,,M,0.01,N,0.02,K,A*37
$GPGGA,231527.250,4739.3120,N,12219.2988,W,1,08,1.27,10.3,M,-17.3,M,,*64
$GPVTG,353.59,T,,M,0.01,N,0.02,K,A*37
$GPGGA,231527.500,4739.3120,N,12219.2988,W,1,08,1.27,10.3,M,-17.3,M,,*66
$GPVTG,290.68,T,,M,0.00,N,0.01,K,A*39
$GPGGA,231527.750,4739.3120,N,12219.2988,W,1,08,1.27,10.3,M,-17.3,M,,*61
$GPRMC,231527.750,A,4739.3120,N,12219.2988,W,0.00,2.79,061221,,,A*7F
$GPVTG,2.79,T,,M,0.00,N,0.01,K,A*30
$GPGGA,231528.000,4739.3120,N,12219.2988,W,1,08,1.27,10.3,M,-17.3,M,,*6C
$GPVTG,2.77,T,,M,0.01,N,0.01,K,A*3F
$GPGGA,231528.250,4739.3120,N,12219.2988,W,1,08,1.27,10.3,M,-17.3,M,,*6B
$GPVTG,18.62,T,,M,0.01,N,0.03,K,A*02
$GPGGA,231528.500,4739.3120,N,12219.2988,W,1,08,1.27,10.3,M,-17.3,M,,*69
$GPVTG,334.64,T,,M,0.01,N,0.02,K,A*38
$GPGGA,231528.750,4739.3120,N,12219.2988,W,1,08,1.27,10.3,M,-17.3,M,,*6E
$GPRMC,231528.750,A,4739.3120,N,12219.2988,W,0.01,17.28,061221,,,A*41
$GPVTG,17.28,T,,M,0.01,N,0.01,K,A*01
$GPGGA,231529.000,4739.3120,N,12219.2988,W,1,08,1.26,10.3,M,-17.3,M,,*6C
$GPVTG,32.40,T,,M,0.01,N,0.01,K,A*08
$GPGGA,231529.250,4739.3120,N,12219.2988,W,1,08,1.26,10.3,M,-17.3,M,,*6B
$GPVTG,339.55,T,,M,0.00,N,0.01,K,A*35
$GPGGA,231529.500,4739.3120,N,12219.2988,W,1,08,1.27,10.3,M,-17.3,M,,*68
$GPVTG,264.54,T,,M,0.01,N,0.02,K,A*3F
$GPGGA,231529.750,4739.3120,N,12219.2988,W,1,08,1.27,10.3,M,-17.3,M,,*6F
$GPRMC,231529.750,A,4739.3120,N,12219.2988,W,0.01,255.04,061221,,,A*7A
$GPVTG,255.04,T,,M,0.01,N,0.01,K,A*3B
$GPGGA,231530.000,4739.3120,N,12219.2988,W,1,08,1.26,10.3,M,-17.3,M,,*64
$GPVTG,7.72,T,,M,0.01,N,0.01,K,A*3F
$GPGGA,231530.250,4739.3120,N,12219.2988,W,1,08,1.27,10.3,M,-17.3,M,,*62
$GPVTG,349.81,T,,M,0.01,N,0.02,K,A*39
$GPGGA,231530.500,4739.3120,N,12219.2988,W,1,08,1.26,10.3,M,-17.3,M,,*61
$GPVTG,4.27,T,,M,0.02,N,0.03,K,A*3D
$GPGGA,231530.750,4739.3120,N,12219.2988,W,1,08,1.26,10.3,M,-17.3,M,,*66
$GPRMC,231530.750,A,4739.3120,N,12219.2988,W,0.02,324.69,061221,,,A*7D
$GPVTG,324.69,T,,M,0.02,N,0.03,K,A*36
$GPGGA,231531.000,4739.3120,N,12219.2988,W,1,08,1.27,10.3,M,-17.3,M,,*64
$GPVTG,333.39,T,,M,0.00,N,0.01,K,A*35
$GPGGA,231531.250,4739.3120,N,12219.2988,W,1,08,1.26,10.3,M,-17.3,M,,*62
$GPVTG,299.16,T,,M,0.01,N,0.01,K,A*38
$GPGGA,231531.500,4739.3120,N,12219.2988,W,1,08,1.27,10.3,M,-17.3,M,,*61
$GPVTG,286.19,T,,M,0.00,N,0.00,K,A*39
$GPGGA,231531.750,4739.3120,N,12219.2988,W,1,08,1.27,10.3,M,-17.3,M,,*66
$GPRMC,231531.750,A,4739.3120,N,12219.2988,W,0.00,319.24,061221,,,A*79
$GPVTG,319.24,T,,M,0.00,N,0.01,K,A*31
$GPGGA,231532.000,4739.3120,N,12219.2988,W,1,08,1.26,10.3,M,-17.3,M,,*66
$GPVTG,321.21,T,,M,0.01,N,0.01,K,A*3E
$GPGGA,231532.250,4739.3120,N,12219.2988,W,1,08,1.26,10.3,M,-17.3,M,,*61
$GPVTG,328.79,T,,M,0.00,N,0.01,K,A*3B
$GPGGA,231532.500,4739.3120,N,12219.2988,W,1,08,1.27,10.4,M,-17.3,M,,*65
$GPVTG,13.26,T,,M,0.00,N,0.01,K,A*0A
$GPGGA,231532.750,4739.3120,N,12219.2988,W,1,08,1.26,10.4,M,-17.3,M,,*63
$GPRMC,231532.750,A,4739.3120,N,12219.2988,W,0.00,21.71,061221,,,A*42
$GPVTG,21.71,T,,M,0.00,N,0.01,K,A*09
$GPGGA,231533.000,4739.3120,N,12219.2988,W,1,08,1.26,10.4,M,-17.3,M,,*60
$GPVTG,25.92,T,,M,0.01,N,0.01,K,A*01
$GPGGA,231533.250,4739.3120,N,12219.2988,W,1,08,1.26,10.4,M,-17.3,M,,*67
$GPVTG,324.29,T,,M,0.00,N,0.00,K,A*33
$GPGGA,231533.500,4739.3120,N,12219.2988,W,1,08,1.26,10.4,M,-17.3,M,,*65
$GPVTG,67.06,T,,M,0.00,N,0.00,K,A*0A
$GPGGA,231533.750,4739.3120,N,12219.2988,W,1,08,1.26,10.4,M,-17.3,M,,*62
$GPRMC,231533.750,A,4739.3120,N,12219.2988,W,0.00,66.88,061221,,,A*46
$GPVTG,66.88,T,,M,0.00,N,0.01,K,A*0C
$GPGGA,231534.000,4739.3121,N,12219.2987,W,1,08,1.26,10.4,M,-17.3,M,,*69
$GPVTG,24.08,T,,M,0.01,N,0.01,K,A*03
$GPGGA,231534.250,4739.3121,N,12219.2987,W,1,08,1.26,10.6,M,-17.3,M,,*6C
$GPVTG,29.07,T,,M,0.01,N,0.02,K,A*02
$GPGGA,231534.500,4739.3122,N,12219.2987,W,1,08,1.26,10.7,M,-17.3,M,,*6C
$GPVTG,342.85,T,,M,0.01,N,0.01,K,A*35
$GPGGA,231534.750,4739.3122,N,12219.2986,W,1,08,1.26,10.8,M,-17.3,M,,*65
$GPRMC,231534.750,A,4739.3122,N,12219.2986,W,0.01,83.52,061221,,,A*40
$GPVTG,83.52,T,,M,0.01,N,0.02,K,A*02
$GPGGA,231535.000,4739.3122,N,12219.2986,W,1,08,1.26,10.9,M,-17.3,M,,*67
$GPVTG,120.29,T,,M,0.01,N,0.02,K,A*36
$GPGGA,231535.250,4739.3123,N,12219.2986,W,1,08,1.26,11.1,M,-17.3,M,,*68
$GPVTG,40.84,T,,M,0.00,N,0.00,K,A*05
$GPGGA,231535.500,4739.3123,N,12219.2986,W,1,08,1.26,11.2,M,-17.3,M,,*69
$GPVTG,355.52,T,,M,0.00,N,0.00,K,A*39
$GPGGA,231535.750,4739.3123,N,12219.2986,W,1,08,1.26,11.3,M,-17.3,M,,*6F
$GPRMC,231535.750,A,4739.3123,N,12219.2986,W,0.00,0.00,061221,,,A*7D
$GPVTG,0.00,T,,M,0.00,N,0.00,K,A*3D
$GPGGA,231536.000,4739.3124,N,12219.2986,W,1,08,1.26,11.4,M,-17.3,M,,*6E
$GPVTG,351.25,T,,M,0.01,N,0.01,K,A*3D
$GPGGA,231536.250,4739.3124,N,12219.2985,W,1,08,1.26,11.4,M,-17.3,M,,*6A
$GPVTG,340.42,T,,M,0.00,N,0.01,K,A*3D
$GPGGA,231536.500,4739.3124,N,12219.2985,W,1,08,1.26,11.5,M,-17.3,M,,*69
$GPVTG,241.45,T,,M,0.00,N,0.00,K,A*3B
$GPGGA,231536.750,4739.3124,N,12219.2985,W,1,08,1.26,11.6,M,-17.3,M,,*6D
$GPRMC,231536.750,A,4739.3124,N,12219.2985,W,0.00,184.52,061221,,,A*70
$GPVTG,184.52,T,,M,0.00,N,0.01,K,A*36
$GPGGA,231537.000,4739.3124,N,12219.2985,W,1,08,1.26,11.8,M,-17.3,M,,*60
$GPVTG,212.46,T,,M,0.00,N,0.01,K,A*3F
$GPGGA,231537.250,4739.3125,N,12219.2985,W,1,08,1.26,11.9,M,-17.3,M,,*67
$GPVTG,348.76,T,,M,0.01,N,0.01,K,A*33
$GPGGA,231537.500,4739.3125,N,12219.2985,W,1,08,1.26,11.9,M,-17.3,M,,*65
$GPVTG,4.05,T,,M,0.02,N,0.03,K,A*3D
$GPGGA,231537.750,4739.3125,N,12219.2985,W,1,08,1.26,11.9,M,-17.3,M,,*62
$GPRMC,231537.750,A,4739.3125,N,12219.2985,W,0.01,20.65,061221,,,A*4A
$GPVTG,20.65,T,,M,0.01,N,0.02,K,A*0F
$GPGGA,231538.000,4739.3125,N,12219.2985,W,1,08,1.26,11.9,M,-17.3,M,,*6F
$GPVTG,324.21,T,,M,0.00,N,0.01,K,A*3A
$GPGGA,231538.250,4739.3125,N,12219.2985,W,1,08,1.26,11.9,M,-17.3,M,,*68
$GPVTG,296.45,T,,M,0.01,N,0.01,K,A*31
$GPGGA,231538.500,4739.3125,N,12219.2985,W,1,08,1.26,11.9,M,-17.3,M,,*6A
$GPVTG,306.75,T,,M,0.00,N,0.01,K,A*3B
$GPGGA,231538.750,4739.3125,N,12219.2985,W,1,08,1.26,11.9,M,-17.3,M,,*6D
$GPRMC,231538.750,A,4739.3125,N,12219.2985,W,0.00,102.09,061221,,,A*7F
$GPVTG,102.09,T,,M,0.00,N,0.01,K,A*36
$GPGGA,231539.000,4739.3125,N,12219.2985,W,1,08,1.26,11.9,M,-17.3,M,,*6E
$GPVTG,76.78,T,,M,0.01,N,0.01,K,A*03
$GPGGA,231539.250,4739.3125,N,12219.2985,W,1,08,1.26,11.9,M,-17.3,M,,*69
$GPVTG,55.84,T,,M,0.00,N,0.00,K,A*01
$GPGGA,231539.500,4739.3125,N,12219.2985,W,1,08,1.26,11.9,M,-17.3,M,,*6B
$GPVTG,97.79,T,,M,0.01,N,0.02,K,A*0E
$GPGGA,231539.750,4739.3125,N,12219.2985,W,1,08,1.26,11.9,M,-17.3,M,,*6C
$GPRMC,231539.750,A,4739.3125,N,12219.2985,W,0.01,102.28,061221,,,A*7C
$GPVTG,102.28,T,,M,0.01,N,0.02,K,A*37
$GPGGA,231540.000,4739.3125,N,12219.2985,W,1,08,1.26,11.9,M,-17.3,M,,*60
$GPVTG,136.50,T,,M,0.00,N,0.00,K,A*3C
$GPGGA,231540.250,4739.3125,N,12219.2985,W,1,08,1.26,11.9,M,-17.3,M,,*67
$GPVTG,48.46,T,,M,0.00,N,0.01,K,A*02
$GPGGA,231540.500,4739.3125,N,12219.2985,W,1,08,1.26,11.9,M,-17.3,M,,*65
$GPVTG,31.67,T,,M,0.01,N,0.01,K,A*0E
$GPGGA,231540.750,4739.3125,N,12219.2985,W,1,08,1.26,11.9,M,-17.3,M,,*62
$GPRMC,231540.750,A,4739.3125,N,12219.2985,W,0.01,25.86,061221,,,A*42
$GPVTG,25.86,T,,M,0.01,N,0.01,K,A*04
$GPGGA,231541.000,4739.3125,N,12219.2985,W,1,08,1.26,11.9,M,-17.3,M,,*61
$GPVTG,16.91,T,,M,0.00,N,0.01,K,A*03
$GPGGA,231541.250,4739.3125,N,12219.2985,W,1,08,1.26,11.9,M,-17.3,M,,*66
$GPVTG,121.61,T,,M,0.00,N,0.01,K,A*39
$GPGGA,231541.500,4739.3125,N,12219.2985,W,1,08,1.26,11.9,M,-17.3,M,,*64
$GPVTG,77.70,T,,M,0.00,N,0.00,K,A*0A
$GPGGA,231541.750,4739.3125,N,12219.2985,W,1,08,1.26,11.9,M,-17.3,M,,*63
$GPRMC,231541.750,A,4739.3125,N,12219.2985,W,0.00,136.22,061221,,,A*7F
$GPVTG,136.22,T,,M,0.00,N,0.00,K,A*39
$GPGGA,231542.000,4739.3125,N,12219.2985,W,1,08,1.26,11.9,M,-17.3,M,,*62
$GPVTG,126.12,T,,M,0.00,N,0.01,K,A*3A
$GPGGA,231542.250,4739.3125,N,12219.2985,W,1,08,1.26,11.9,M,-17.3,M,,*65
$GPVTG,107.46,T,,M,0.01,N,0.01,K,A*39
$GPGGA,231542.500,4739.3125,N,12219.2985,W,1,08,1.26,11.9,M,-17.3,M,,*67
$GPVTG,350.36,T,,M,0.01,N,0.01,K,A*3E
$GPGGA,231542.750,4739.3125,N,12219.2985,W,1,08,1.26,11.9,M,-17.3,M,,*60
$GPRMC,231542.750,A,4739.3125,N,12219.2985,W,0.01,349.69,061221,,,A*78
$GPVTG,349.69,T,,M,0.01,N,0.02,K,A*3F
$GPGGA,231543.000,4739.3125,N,12219.2985,W,1,08,1.26,11.9,M,-17.3,M,,*63
$GPVTG,265.75,T,,M,0.00,N,0.00,K,A*3E
$GPGGA,231543.250,4739.3125,N,12219.2985,W,1,08,1.26,11.9,M,-17.3,M,,*64
$GPVTG,192.91,T,,M,0.00,N,0.01,K,A*3E
$GPGGA,231543.500,4739.3125,N,12219.2985,W,1,08,1.26,11.9,M,-17.3,M,,*66
$GPVTG,188.46,T,,M,0.00,N,0.01,K,A*3F
$GPGGA,231543.750,4739.3125,N,12219.2985,W,1,08,1.26,11.9,M,-17.3,M,,*61
$GPRMC,231543.750,A,4739.3125,N,12219.2985,W,0.01,358.81,061221,,,A*7F
$GPVTG,358.81,T,,M,0.01,N,0.02,K,A*39
$GPGGA,231544.000,4739.3125,N,12219.2985,W,1,08,1.26,11.9,M,-17.3,M,,*64
$GPVTG,15.27,T,,M,0.00,N,0.01,K,A*0D
$GPGGA,231544.250,4739.3125,N,12219.2985,W,1,08,1.26,11.9,M,-17.3,M,,*63
$GPVTG,42.31,T,,M,0.01,N,0.01,K,A*09
$GPGGA,231544.500,4739.3125,N,12219.2985,W,1,08,1.26,11.9,M,-17.3,M,,*61
$GPVTG,5.10,T,,M,0.00,N,0.01,K,A*38
$GPGGA,231544.750,4739.3125,N,12219.2985,W,1,08,1.26,11.9,M,-17.3,M,,*66
$GPRMC,231544.750,A,4739.3125,N,12219.2985,W,0.01,320.12,061221,,,A*7D
$GPVTG,320.12,T,,M,0.01,N,0.01,K,A*3F
$GPGGA,231545.000,4739.3125,N,12219.2985,W,1,08,1.26,11.9,M,-17.3,M,,*65
$GPVTG,343.23,T,,M,0.01,N,0.02,K,A*3B
$GPGGA,231545.250,4739.3125,N,12219.2985,W,1,08,1.26,11.9,M,-17.3,M,,*62
$GPVTG,5.12,T,,M,0.01,N,0.02,K,A*38
$GPGGA,231545.500,4739.3125,N,12219.2985,W,1,08,1.26,11.9,M,-17.3,M,,*60
$GPVTG,46.33,T,,M,0.01,N,0.01,K,A*0F
$GPGGA,231545.750,4739.3125,N,12219.2985,W,1,08,1.26,11.9,M,-17.3,M,,*67
$GPRMC,231545.750,A,4739.3125,N,12219.2985,W,0.01,152.68,061221,,,A*76
$GPVTG,152.68,T,,M,0.01,N,0.01,K,A*35
$GPGGA,231546.000,4739.3125,N,12219.2985,W,1,08,1.26,11.9,M,-17.3,M,,*66
$GPVTG,167.85,T,,M,0.01,N,0.01,K,A*30
$GPGGA,231546.250,4739.3125,N,12219.2985,W,1,08,1.26,11.9,M,-17.3,M,,*61
$GPVTG,128.47,T,,M,0.00,N,0.00,K,A*35
$GPGGA,231546.500,4739.3125,N,12219.2985,W,1,08,1.26,11.9,M,-17.3,M,,*63
$GPVTG,67.55,T,,M,0.00,N,0.00,K,A*0C
$GPGGA,231546.750,4739.3125,N,12219.2985,W,1,08,1.26,11.9,M,-17.3,M,,*64
$GPRMC,231546.750,A,4739.3125,N,12219.2985,W,0.00,86.65,061221,,,A*41
$GPVTG,86.65,T,,M,0.00,N,0.00,K,A*00
$GPGGA,231547.000,4739.3125,N,12219.2985,W,1,08,1.26,11.9,M,-17.3,M,,*67
$GPVTG,154.59,T,,M,0.00,N,0.00,K,A*31
$GPGGA,231547.250,4739.3125,N,12219.2985,W,1,08,1.22,12.0,M,-17.3,M,,*6E
$GPVTG,104.39,T,,M,0.00,N,0.00,K,A*32
$GPGGA,231547.500,4739.3125,N,12219.2985,W,1,08,1.26,12.0,M,-17.3,M,,*68
$GPVTG,0.00,T,,M,0.00,N,0.00,K,A*3D
$GPGGA,231547.750,4739.3125,N,12219.2985,W,1,08,1.26,12.0,M,-17.3,M,,*6F
$GPRMC,231547.750,A,4739.3125,N,12219.2985,W,0.00,334.07,061221,,,A*7E
$GPVTG,334.07,T,,M,0.00,N,0.00,K,A*3E
$GPGGA,231548.000,4739.3125,N,12219.2985,W,1,08,1.26,12.0,M,-17.3,M,,*62
$GPVTG,248.32,T,,M,0.00,N,0.01,K,A*33
$GPGGA,231548.250,4739.3125,N,12219.2985,W,1,08,1.26,12.0,M,-17.3,M,,*65
$GPVTG,304.66,T,,M,0.00,N,0.01,K,A*3B
$GPGGA,231548.500,4739.3125,N,12219.2985,W,1,08,1.26,12.0,M,-17.3,M,,*67
$GPVTG,0.00,T,,M,0.00,N,0.00,K,A*3D
$GPGGA,231548.750,4739.3125,N,12219.2985,W,1,08,1.26,12.0,M,-17.3,M,,*60
$GPRMC,231548.750,A,4739.3125,N,12219.2985,W,0.01,85.13,061221,,,A*4C
$GPVTG,85.13,T,,M,0.01,N,0.01,K,A*02
$GPGGA,231549.000,4739.3125,N,12219.2985,W,1,08,1.26,12.0,M,-17.3,M,,*63
$GPVTG,22.79,T,,M,0.01,N,0.01,K,A*03
$GPGGA,231549.250,4739.3125,N,12219.2985,W,1,08,1.26,12.0,M,-17.3,M,,*64
$GPVTG,88.13,T,,M,0.01,N,0.02,K,A*0C
$GPGGA,231549.500,4739.3125,N,12219.2985,W,1,08,1.26,12.0,M,-17.3,M,,*66
$GPVTG,128.28,T,,M,0.01,N,0.02,K,A*3F
$GPGGA,231549.750,4739.3125,N,12219.2985,W,1,08,1.26,12.0,M,-17.3,M,,*61
$GPRMC,231549.750,A,4739.3125,N,12219.2985,W,0.00,223.76,061221,,,A*71
$GPVTG,223.76,T,,M,0.00,N,0.00,K,A*3F
$GPGGA,231550.000,4739.3125,N,12219.2985,W,1,08,1.26,12.0,M,-17.3,M,,*6B
$GPVTG,0.00,T,,M,0.00,N,0.00,K,A*3D
$GPGGA,231550.250,4739.3125,N,12219.2985,W,1,08,1.26,12.0,M,-17.3,M,,*6C
$GPVTG,0.00,T,,M,0.00,N,0.00,K,A*3D
$GPGGA,231550.500,4739.3125,N,12219.2985,W,1,08,1.26,12.0,M,-17.3,M,,*6E
$GPVTG,170.31,T,,M,0.00,N,0.00,K,A*39
$GPGGA,231550.750,4739.3125,N,12219.2985,W,1,08,1.26,12.0,M,-17.3,M,,*69
$GPRMC,231550.750,A,4739.3125,N,12219.2985,W,0.00,186.72,061221,,,A*71
$GPVTG,186.72,T,,M,0.00,N,0.00,K,A*37
$GPGGA,231551.000,4739.3125,N,12219.2985,W,1,08,1.26,12.0,M,-17.3,M,,*6A
$GPVTG,189.43,T,,M,0.01,N,0.01,K,A*3A
$GPGGA,231551.250,4739.3125,N,12219.2985,W,1,08,1.26,12.0,M,-17.3,M,,*6D
$GPVTG,173.41,T,,M,0.01,N,0.02,K,A*3E
$GPGGA,231551.500,4739.3125,N,12219.2985,W,1,08,1.26,12.0,M,-17.3,M,,*6F
$GPVTG,124.26,T,,M,0.00,N,0.00,K,A*3E
$GPGGA,231551.750,4739.3125,N,12219.2985,W,1,08,1.26,12.0,M,-17.3,M,,*68
$GPRMC,231551.750,A,4739.3125,N,12219.2985,W,0.00,230.35,061221,,,A*7D
$GPVTG,230.35,T,,M,0.00,N,0.01,K,A*3B
$GPGGA,231552.000,4739.3125,N,12219.2985,W,1,08,1.26,12.0,M,-17.3,M,,*69
$GPVTG,228.92,T,,M,0.01,N,0.01,K,A*3E
$GPGGA,231552.250,4739.3125,N,12219.2985,W,1,08,1.26,12.0,M,-17.3,M,,*6E
$GPVTG,188.87,T,,M,0.00,N,0.01,K,A*32
$GPGGA,231552.500,4739.3125,N,12219.2985,W,1,08,1.26,12.0,M,-17.3,M,,*6C
$GPVTG,115.07,T,,M,0.00,N,0.01,K,A*3E
$GPGGA,231552.750,4739.3125,N,12219.2985,W,1,08,1.26,12.0,M,-17.3,M,,*6B
$GPRMC,231552.750,A,4739.3125,N,12219.2985,W,0.01,50.06,061221,,,A*4B
$GPVTG,50.06,T,,M,0.01,N,0.01,K,A*0E
$GPGGA,231553.000,4739.3125,N,12219.2985,W,1,08,1.26,12.0,M,-17.3,M,,*68
$GPVTG,48.63,T,,M,0.01,N,0.02,K,A*07
$GPGGA,231553.250,4739.3125,N,12219.2985,W,1,08,1.26,12.0,M,-17.3,M,,*6F
$GPVTG,49.24,T,,M,0.01,N,0.01,K,A*06
$GPGGA,231553.500,4739.3125,N,12219.2985,W,1,08,1.26,12.0,M,-17.3,M,,*6D
$GPVTG,47.62,T,,M,0.01,N,0.01,K,A*0A
$GPGGA,231553.750,4739.3125,N,12219.2985,W,1,08,1.26,12.0,M,-17.3,M,,*6A
$GPRMC,231553.750,A,4739.3125,N,12219.2985,W,0.00,343.21,061221,,,A*7F
$GPVTG,343.21,T,,M,0.00,N,0.01,K,A*3B
$GPGGA,231554.000,4739.3125,N,12219.2985,W,1,08,1.26,12.0,M,-17.3,M,,*6F
$GPVTG,45.40,T,,M,0.01,N,0.01,K,A*08
$GPGGA,231554.250,4739.3125,N,12219.2985,W,1,08,1.26,12.0,M,-17.3,M,,*68
$GPVTG,104.19,T,,M,0.01,N,0.01,K,A*30
$GPGGA,231554.500,4739.3125,N,12219.2985,W,1,08,1.26,12.0,M,-17.3,M,,*6A
$GPVTG,112.65,T,,M,0.01,N,0.02,K,A*3F
$GPGGA,231554.750,4739.3125,N,12219.2985,W,1,08,1.26,12.0,M,-17.3,M,,*6D
$GPRMC,231554.750,A,4739.3125,N,12219.2985,W,0.01,100.60,061221,,,A*79
$GPVTG,100.60,T,,M,0.01,N,0.02,K,A*39
$GPGGA,231555.000,4739.3125,N,12219.2985,W,1,08,1.26,12.0,M,-17.3,M,,*6E
$GPVTG,81.11,T,,M,0.01,N,0.02,K,A*07
$GPGGA,231555.250,4739.3125,N,12219.2985,W,1,08,1.26,12.0,M,-17.3,M,,*69
$GPVTG,66.74,T,,M,0.00,N,0.01,K,A*0F
$GPGGA,231555.500,4739.3125,N,12219.2985,W,1,08,1.26,12.0,M,-17.3,M,,*6B
$GPVTG,39.71,T,,M,0.01,N,0.02,K,A*02
$GPGGA,231555.750,4739.3125,N,12219.2985,W,1,08,1.26,12.0,M,-17.3,M,,*6C
$GPRMC,231555.750,A,4739.3125,N,12219.2985,W,0.00,53.49,061221,,,A*45
$GPVTG,53.49,T,,M,0.00,N,0.01,K,A*07
$GPGGA,231556.000,4739.3125,N,12219.2985,W,1,08,1.26,12.0,M,-17.3,M,,*6D
$GPVTG,71.11,T,,M,0.00,N,0.00,K,A*0B
$GPGGA,231556.250,4739.3125,N,12219.2985,W,1,08,1.26,12.0,M,-17.3,M,,*6A
$GPVTG,88.19,T,,M,0.00,N,0.00,K,A*05
$GPGGA,231556.500,4739.3125,N,12219.2985,W,1,08,1.26,12.0,M,-17.3,M,,*68
$GPVTG,63.24,T,,M,0.00,N,0.00,K,A*0E
$GPGGA,231556.750,4739.3125,N,12219.2985,W,1,08,1.26,12.0,M,-17.3,M,,*6F
$GPRMC,231556.750,A,4739.3125,N,12219.2985,W,0.01,4.59,061221,,,A*74
$GPVTG,4.59,T,,M,0.01,N,0.02,K,A*36
$GPGGA,231557.000,4739.3125,N,12219.2985,W,1,08,1.26,12.0,M,-17.3,M,,*6C
$GPVTG,31.36,T,,M,0.01,N,0.02,K,A*09
$GPGGA,231557.250,4739.3125,N,12219.2985,W,1,08,1.26,12.0,M,-17.3,M,,*6B
$GPVTG,7.18,T,,M,0.01,N,0.01,K,A*33
$GPGGA,231557.500,4739.3125,N,12219.2985,W,1,08,1.26,12.0,M,-17.3,M,,*69
$GPVTG,87.70,T,,M,0.00,N,0.01,K,A*04
$GPGGA,231557.750,4739.3125,N,12219.2985,W,1,08,1.26,12.0,M,-17.3,M,,*6E
$GPRMC,231557.750,A,4739.3125,N,12219.2985,W,0.00,93.15,061221,,,A*42
$GPVTG,93.15,T,,M,0.00,N,0.01,K,A*02
$GPGGA,231558.000,4739.3125,N,12219.2985,W,1,08,1.26,12.0,M,-17.3,M,,*63
$GPVTG,291.43,T,,M,0.00,N,0.01,K,A*31
$GPGGA,231558.250,4739.3125,N,12219.2985,W,1,08,1.26,12.0,M,-17.3,M,,*64
$GPVTG,0.00,T,,M,0.00,N,0.00,K,A*3D
$GPGGA,231558.500,4739.3125,N,12219.2985,W,1,08,1.26,12.0,M,-17.3,M,,*66
$GPVTG,44.93,T,,M,0.01,N,0.02,K,A*04
$GPGGA,231558.750,4739.3125,N,12219.2984,W,1,08,1.26,12.0,M,-17.3,M,,*60
$GPRMC,231558.750,A,4739.3125,N,12219.2984,W,0.01,33.58,061221,,,A*4E
$GPVTG,33.58,T,,M,0.01,N,0.01,K,A*00
$GPGGA,231559.000,4739.3125,N,12219.2984,W,1,08,1.26,12.0,M,-17.3,M,,*63
$GPVTG,69.47,T,,M,0.01,N,0.01,K,A*01
$GPGGA,231559.250,4739.3125,N,12219.2984,W,1,08,1.26,12.0,M,-17.3,M,,*64
$GPVTG,52.00,T,,M,0.00,N,0.01,K,A*0B
$GPGGA,231559.500,4739.3125,N,12219.2984,W,1,08,1.26,12.0,M,-17.3,M,,*66
$GPVTG,55.60,T,,M,0.01,N,0.01,K,A*0B
$GPGGA,231559.750,4739.3125,N,12219.2984,W,1,08,1.26,12.0,M,-17.3,M,,*61
$GPRMC,231559.750,A,4739.3125,N,12219.2984,W,0.00,65.26,061221,,,A*44
$GPVTG,65.26,T,,M,0.00,N,0.01,K,A*0B
$GPGGA,231600.000,4739.3125,N,12219.2984,W,1,08,1.26,12.0,M,-17.3,M,,*6C
$GPVTG,66.69,T,,M,0.01,N,0.02,K,A*01
$GPGGA,231600.250,4739.3125,N,12219.2984,W,1,08,1.26,12.0,M,-17.3,M,,*6B
$GPVTG,84.37,T,,M,0.01,N,0.01,K,A*05
$GPGGA,231600.500,4739.3125,N,12219.2984,W,1,08,1.26,12.0,M,-17.3,M,,*69
$GPVTG,199.69,T,,M,0.00,N,0.00,K,A*33
$GPGGA,231600.750,4739.3125,N,12219.2984,W,1,08,1.26,12.0,M,-17.3,M,,*6E
$GPRMC,231600.750,A,4739.3125,N,12219.2984,W,0.00,266.66,061221,,,A*7E
$GPVTG,266.66,T,,M,0.00,N,0.00,K,A*3F
$GPGGA,231601.000,4739.3125,N,12219.2984,W,1,08,1.26,12.1,M,-17.3,M,,*6C
$GPVTG,356.09,T,,M,0.01,N,0.02,K,A*37
$GPGGA,231601.250,4739.3125,N,12219.2984,W,1,08,1.26,12.1,M,-17.3,M,,*6B
$GPVTG,9.27,T,,M,0.01,N,0.02,K,A*32
$GPGGA,231601.500,4739.3125,N,12219.2984,W,1,08,1.26,12.1,M,-17.3,M,,*69
$GPVTG,25.92,T,,M,0.01,N,0.01,K,A*01
$GPGGA,231601.750,4739.3125,N,12219.2984,W,1,08,1.26,12.1,M,-17.3,M,,*6E
$GPRMC,231601.750,A,4739.3125,N,12219.2984,W,0.01,160.29,061221,,,A*70
$GPVTG,160.29,T,,M,0.01,N,0.01,K,A*31
$GPGGA,231602.000,4739.3125,N,12219.2984,W,1,08,1.26,12.1,M,-17.3,M,,*6F
$GPVTG,133.72,T,,M,0.00,N,0.01,K,A*38
$GPGGA,231602.250,4739.3125,N,12219.2984,W,1,08,1.26,12.1,M,-17.3,M,,*68
$GPVTG,59.29,T,,M,0.00,N,0.01,K,A*0B
$GPGGA,231602.500,4739.3125,N,12219.2984,W,1,08,1.26,12.1,M,-17.3,M,,*6A
$GPVTG,35.74,T,,M,0.01,N,0.02,K,A*0B
$GPGGA,231602.750,4739.3125,N,12219.2984,W,1,08,1.26,12.1,M,-17.3,M,,*6D
$GPRMC,231602.750,A,4739.3125,N,12219.2984,W,0.00,92.22,061221,,,A*45
$GPVTG,92.22,T,,M,0.00,N,0.01,K,A*07
$GPGGA,231603.000,4739.3125,N,12219.2984,W,1,08,1.26,12.1,M,-17.3,M,,*6E
$GPVTG,211.24,T,,M,0.00,N,0.01,K,A*38
$GPGGA,231603.250,4739.3125,N,12219.2984,W,1,08,1.26,12.1,M,-17.3,M,,*69
$GPVTG,157.15,T,,M,0.00,N,0.00,K,A*3A
$GPGGA,231603.500,4739.3125,N,12219.2984,W,1,08,1.26,12.1,M,-17.3,M,,*6B
$GPVTG,164.98,T,,M,0.00,N,0.00,K,A*3F
$GPGGA,231603.750,4739.3125,N,12219.2984,W,1,08,1.26,12.1,M,-17.3,M,,*6C
$GPRMC,231603.750,A,4739.3125,N,12219.2984,W,0.00,35.88,061221,,,A*49
$GPVTG,35.88,T,,M,0.00,N,0.01,K,A*0A
$GPGGA,231604.000,4739.3125,N,12219.2984,W,1,08,1.26,12.1,M,-17.3,M,,*69
$GPVTG,329.46,T,,M,0.01,N,0.01,K,A*37
$GPGGA,231604.250,4739.3125,N,12219.2984,W,1,08,1.26,12.1,M,-17.3,M,,*6E
$GPVTG,323.85,T,,M,0.01,N,0.01,K,A*32
$GPGGA,231604.500,4739.3125,N,12219.2984,W,1,08,1.26,12.1,M,-17.3,M,,*6C
$GPVTG,292.08,T,,M,0.00,N,0.00,K,A*3C
$GPGGA,231604.750,4739.3125,N,12219.2984,W,1,08,1.26,12.1,M,-17.3,M,,*6B
$GPRMC,231604.750,A,4739.3125,N,12219.2984,W,0.01,234.58,061221,,,A*71
$GPVTG,234.58,T,,M,0.01,N,0.01,K,A*35
$GPGGA,231605.000,4739.3125,N,12219.2984,W,1,08,1.26,12.1,M,-17.3,M,,*68
$GPVTG,263.27,T,,M,0.00,N,0.01,K,A*3E
$GPGGA,231605.250,4739.3125,N,12219.2984,W,1,08,1.26,12.1,M,-17.3,M,,*6F
$GPVTG,227.48,T,,M,0.00,N,0.01,K,A*37
$GPGGA,231605.500,4739.3125,N,12219.2984,W,1,08,1.26,12.1,M,-17.3,M,,*6D
$GPVTG,79.19,T,,M,0.01,N,0.01,K,A*0B
$GPGGA,231605.750,4739.3125,N,12219.2984,W,1,08,1.26,12.1,M,-17.3,M,,*6A
$GPRMC,231605.750,A,4739.3125,N,12219.2984,W,0.01,44.27,061221,,,A*4D
$GPVTG,44.27,T,,M,0.01,N,0.01,K,A*08
$GPGGA,231606.000,4739.3125,N,12219.2984,W,1,08,1.26,12.1,M,-17.3,M,,*6B
$GPVTG,87.73,T,,M,0.01,N,0.01,K,A*06
$GPGGA,231606.250,4739.3125,N,12219.2984,W,1,08,1.26,12.1,M,-17.3,M,,*6C
$GPVTG,77.09,T,,M,0.00,N,0.01,K,A*05
$GPGGA,231606.500,4739.3125,N,12219.2984,W,1,08,1.26,12.1,M,-17.3,M,,*6E
$GPVTG,304.04,T,,M,0.00,N,0.01,K,A*3F
$GPGGA,231606.750,4739.3125,N,12219.2984,W,1,08,1.26,12.1,M,-17.3,M,,*69
$GPRMC,231606.750,A,4739.3125,N,12219.2984,W,0.00,242.08,061221,,,A*76
$GPVTG,242.08,T,,M,0.00,N,0.00,K,A*31
$GPGGA,231607.000,4739.3125,N,12219.2984,W,1,08,1.26,12.1,M,-17.3,M,,*6A
$GPVTG,56.03,T,,M,0.00,N,0.00,K,A*0D
$GPGGA,231607.250,4739.3125,N,12219.2984,W,1,08,1.26,12.1,M,-17.3,M,,*6D
$GPVTG,14.20,T,,M,0.00,N,0.01,K,A*0B
$GPGGA,231607.500,4739.3125,N,12219.2984,W,1,08,1.26,12.1,M,-17.3,M,,*6F
$GPVTG,244.29,T,,M,0.00,N,0.01,K,A*35
$GPGGA,231607.750,4739.3125,N,12219.2984,W,1,08,1.26,12.1,M,-17.3,M,,*68
$GPRMC,231607.750,A,4739.3125,N,12219.2984,W,0.00,174.32,061221,,,A*78
$GPVTG,174.32,T,,M,0.00,N,0.00,K,A*3E
$GPGGA,231608.000,4739.3125,N,12219.2984,W,1,08,1.26,12.1,M,-17.3,M,,*65
$GPVTG,94.79,T,,M,0.01,N,0.01,K,A*0E
$GPGGA,231608.250,4739.3125,N,12219.2984,W,1,08,1.26,12.1,M,-17.3,M,,*62
$GPVTG,78.02,T,,M,0.00,N,0.01,K,A*01
$GPGGA,231608.500,4739.3125,N,12219.2984,W,1,08,1.26,12.1,M,-17.3,M,,*60
$GPVTG,83.14,T,,M,0.00,N,0.01,K,A*02
$GPGGA,231608.750,4739.3125,N,12219.2984,W,1,08,1.26,12.1,M,-17.3,M,,*67
$GPRMC,231608.750,A,4739.3125,N,12219.2984,W,0.01,104.79,061221,,,A*7E
$GPVTG,104.79,T,,M,0.01,N,0.01,K,A*36
$GPGGA,231609.000,4739.3125,N,12219.2984,W,1,08,1.26,12.1,M,-17.3,M,,*64
$GPVTG,75.39,T,,M,0.01,N,0.02,K,A*06
$GPGGA,231609.250,4739.3125,N,12219.2984,W,1,08,1.26,12.1,M,-17.3,M,,*63
$GPVTG,51.19,T,,M,0.01,N,0.01,K,A*01
$GPGGA,231609.500,4739.3125,N,12219.2984,W,1,08,1.26,12.1,M,-17.3,M,,*61
$GPVTG,149.88,T,,M,0.00,N,0.00,K,A*31
$GPGGA,231609.750,4739.3125,N,12219.2984,W,1,08,1.26,12.1,M,-17.3,M,,*66
$GPRMC,231609.750,A,4739.3125,N,12219.2984,W,0.01,232.00,061221,,,A*77
$GPVTG,232.00,T,,M,0.01,N,0.01,K,A*3E
$GPGGA,231610.000,4739.3125,N,12219.2984,W,1,08,1.26,12.1,M,-17.3,M,,*6C
$GPVTG,252.75,T,,M,0.00,N,0.00,K,A*3A
$GPGGA,231610.250,4739.3125,N,12219.2984,W,1,08,1.26,12.1,M,-17.3,M,,*6B
$GPVTG,116.88,T,,M,0.00,N,0.00,K,A*3B
$GPGGA,231610.500,4739.3125,N,12219.2984,W,1,08,1.26,12.1,M,-17.3,M,,*69
$GPVTG,76.30,T,,M,0.00,N,0.01,K,A*0E
$GPGGA,231610.750,4739.3125,N,12219.2984,W,1,08,1.26,12.1,M,-17.3,M,,*6E
$GPRMC,231610.750,A,4739.3125,N,12219.2984,W,0.00,0.00,061221,,,A*7D
$GPVTG,0.00,T,,M,0.00,N,0.00,K,A*3D
$GPGGA,231611.000,4739.3125,N,12219.2984,W,1,08,1.26,12.1,M,-17.3,M,,*6D
$GPVTG,53.12,T,,M,0.00,N,0.01,K,A*09
$GPGGA,231611.250,4739.3125,N,12219.2984,W,1,08,1.26,12.1,M,-17.3,M,,*6A
$GPVTG,36.86,T,,M,0.01,N,0.01,K,A*06
$GPGGA,231611.500,4739.3125,N,12219.2984,W,1,08,1.26,12.1,M,-17.3,M,,*68
$GPVTG,61.66,T,,M,0.01,N,0.02,K,A*09
$GPGGA,231611.750,4739.3125,N,12219.2984,W,1,08,1.26,12.1,M,-17.3,M,,*6F
$GPRMC,231611.750,A,4739.3125,N,12219.2984,W,0.00,60.87,061221,,,A*45
$GPVTG,60.87,T,,M,0.00,N,0.01,K,A*05
$GPGGA,231612.000,4739.3125,N,12219.2984,W,1,08,1.26,12.1,M,-17.3,M,,*6E
$GPVTG,250.78,T,,M,0.01,N,0.01,K,A*35
$GPGGA,231612.250,4739.3125,N,12219.2984,W,1,08,1.26,12.2,M,-17.3,M,,*6A
$GPVTG,72.04,T,,M,0.00,N,0.00,K,A*0C
$GPGGA,231612.500,4739.3125,N,12219.2984,W,1,08,1.26,12.2,M,-17.3,M,,*68
$GPVTG,62.75,T,,M,0.01,N,0.03,K,A*09
$GPGGA,231612.750,4739.3125,N,12219.2984,W,1,08,1.25,12.2,M,-17.3,M,,*6C
$GPRMC,231612.750,A,4739.3125,N,12219.2984,W,0.01,51.21,061221,,,A*49
$GPVTG,51.21,T,,M,0.01,N,0.02,K,A*09
$GPGGA,231613.000,4739.3125,N,12219.2984,W,1,08,1.26,12.2,M,-17.3,M,,*6C
$GPVTG,63.03,T,,M,0.01,N,0.02,K,A*08
$GPGGA,231613.250,4739.3125,N,12219.2984,W,1,08,1.25,12.2,M,-17.3,M,,*68
$GPVTG,72.75,T,,M,0.01,N,0.02,K,A*09
$GPGGA,231613.500,4739.3125,N,12219.2984,W,1,08,1.26,12.2,M,-17.3,M,,*69
$GPVTG,93.30,T,,M,0.01,N,0.01,K,A*04
$GPGGA,231613.750,4739.3125,N,12219.2984,W,1,08,1.26,12.2,M,-17.3,M,,*6E
$GPRMC,231613.750,A,4739.3125,N,12219.2984,W,0.01,21.82,061221,,,A*46
$GPVTG,21.82,T,,M,0.01,N,0.01,K,A*04
$GPGGA,231614.000,4739.3125,N,12219.2984,W,1,08,1.26,12.2,M,-17.3,M,,*6B
$GPVTG,331.04,T,,M,0.01,N,0.01,K,A*38
$GPGGA,231614.250,4739.3125,N,12219.2984,W,1,08,1.26,12.2,M,-17.3,M,,*6C
$GPVTG,284.77,T,,M,0.01,N,0.01,K,A*33
$GPGGA,231614.500,4739.3125,N,12219.2984,W,1,08,1.26,12.2,M,-17.3,M,,*6E
$GPVTG,123.70,T,,M,0.00,N,0.01,K,A*3B
$GPGGA,231614.750,4739.3125,N,12219.2984,W,1,08,1.26,12.2,M,-17.3,M,,*69
$GPRMC,231614.750,A,4739.3125,N,12219.2984,W,0.01,63.34,061221,,,A*4A
$GPVTG,63.34,T,,M,0.01,N,0.01,K,A*0F
$GPGGA,231615.000,4739.3126,N,12219.2984,W,1,08,1.26,12.2,M,-17.3,M,,*69
$GPVTG,322.74,T,,M,0.00,N,0.01,K,A*3C
$GPGGA,231615.250,4739.3126,N,12219.2984,W,1,08,1.25,12.2,M,-17.3,M,,*6D
$GPVTG,69.04,T,,M,0.00,N,0.01,K,A*07
$GPGGA,231615.500,4739.3126,N,12219.2984,W,1,08,1.26,12.2,M,-17.3,M,,*6C
$GPVTG,84.00,T,,M,0.01,N,0.01,K,A*01
$GPGGA,231615.750,4739.3126,N,12219.2984,W,1,08,1.26,12.2,M,-17.3,M,,*6B
$GPRMC,231615.750,A,4739.3126,N,12219.2984,W,0.00,104.37,061221,,,A*7A
$GPVTG,104.37,T,,M,0.00,N,0.00,K,A*3C
$GPGGA,231616.000,4739.3126,N,12219.2984,W,1,08,1.25,12.2,M,-17.3,M,,*69
$GPVTG,310.63,T,,M,0.01,N,0.02,K,A*39
$GPGGA,231616.250,4739.3126,N,12219.2984,W,1,08,1.26,12.2,M,-17.3,M,,*6D
$GPVTG,341.68,T,,M,0.00,N,0.01,K,A*34
$GPGGA,231616.500,4739.3126,N,12219.2984,W,1,08,1.26,12.2,M,-17.3,M,,*6F
$GPVTG,90.40,T,,M,0.00,N,0.01,K,A*01
$GPGGA,231616.750,4739.3126,N,12219.2984,W,1,08,1.25,12.2,M,-17.3,M,,*6B
$GPRMC,231616.750,A,4739.3126,N,12219.2984,W,0.00,126.73,061221,,,A*79
$GPVTG,126.73,T,,M,0.00,N,0.00,K,A*3C
$GPGGA,231617.000,4739.3126,N,12219.2984,W,1,08,1.25,12.2,M,-17.3,M,,*68
$GPVTG,168.58,T,,M,0.00,N,0.00,K,A*3F
$GPGGA,231617.250,4739.3126,N,12219.2984,W,1,08,1.26,12.2,M,-17.3,M,,*6C
$GPVTG,187.12,T,,M,0.00,N,0.01,K,A*31
$GPGGA,231617.500,4739.3126,N,12219.2984,W,1,08,1.26,12.2,M,-17.3,M,,*6E
$GPVTG,268.32,T,,M,0.00,N,0.01,K,A*31
$GPGGA,231617.750,4739.3126,N,12219.2984,W,1,08,1.26,12.2,M,-17.3,M,,*69
$GPRMC,231617.750,A,4739.3126,N,12219.2984,W,0.00,273.65,061221,,,A*7C
$GPVTG,273.65,T,,M,0.00,N,0.01,K,A*39
$GPGGA,231618.000,4739.3126,N,12219.2984,W,1,08,1.25,12.2,M,-17.3,M,,*67
$GPVTG,182.67,T,,M,0.00,N,0.00,K,A*37
$GPGGA,231618.250,4739.3126,N,12219.2984,W,1,08,1.26,12.2,M,-17.3,M,,*63
$GPVTG,281.65,T,,M,0.00,N,0.00,K,A*35
$GPGGA,231618.500,4739.3126,N,12219.2984,W,1,08,1.25,12.2,M,-17.3,M,,*62
$GPVTG,267.80,T,,M,0.00,N,0.01,K,A*37
$GPGGA,231618.750,4739.3126,N,12219.2984,W,1,08,1.25,12.2,M,-17.3,M,,*65
$GPRMC,231618.750,A,4739.3126,N,12219.2984,W,0.00,275.61,061221,,,A*71
$GPVTG,275.61,T,,M,0.00,N,0.00,K,A*3A
$GPGGA,231619.000,4739.3126,N,12219.2984,W,1,08,1.25,12.2,M,-17.3,M,,*66
$GPVTG,231.54,T,,M,0.00,N,0.00,K,A*3C
$GPGGA,231619.250,4739.3126,N,12219.2984,W,1,08,1.25,12.2,M,-17.3,M,,*61
$GPVTG,214.20,T,,M,0.00,N,0.00,K,A*38
$GPGGA,231619.500,4739.3126,N,12219.2984,W,1,08,1.25,12.2,M,-17.3,M,,*63
$GPVTG,198.38,T,,M,0.00,N,0.01,K,A*37
$GPGGA,231619.750,4739.3126,N,12219.2984,W,1,08,1.25,12.2,M,-17.3,M,,*64
$GPRMC,231619.750,A,4739.3126,N,12219.2984,W,0.01,173.52,061221,,,A*74
$GPVTG,173.52,T,,M,0.01,N,0.02,K,A*3C
$GPGGA,231620.000,4739.3126,N,12219.2984,W,1,08,1.25,12.2,M,-17.3,M,,*6C
$GPVTG,172.88,T,,M,0.01,N,0.01,K,A*39
$GPGGA,231620.250,4739.3126,N,12219.2984,W,1,08,1.25,12.2,M,-17.3,M,,*6B
$GPVTG,4.23,T,,M,0.00,N,0.01,K,A*39
$GPGGA,231620.500,4739.3126,N,12219.2984,W,1,08,1.25,12.2,M,-17.3,M,,*69
